Country,City,Latitude,Longitude,Belt,Date,Max Temp,Wind Speed,Cloudiness,Humidity,Lon,Lat
es,las rozas de madrid,40.492113,-3.871271,"(40, 50]",1583985750,15.0,1.5,100,87,-3.87,40.49
us,new milford,40.935,-74.0194444,"(40, 50]",1583985752,9.44,2.1,40,42,-74.02,40.94
ro,parau,45.85,25.183332999999998,"(40, 50]",1583985753,6.67,1.3,73,83,25.18,45.85
ro,ceuasul-de campie,46.633333,24.516667,"(40, 50]",1583985754,5.0,2.1,66,93,24.52,46.63
ch,konolfingen,46.879674,7.622617999999999,"(40, 50]",1583985756,9.44,1.0,1,93,7.62,46.88
cn,fujin,47.26,132.032222,"(40, 50]",1583985757,-1.38,6.55,93,96,132.03,47.26
ro,seaca de camp,43.933333000000005,23.216667,"(40, 50]",1583985758,6.67,0.5,2,93,23.22,43.93
de,losheim,49.516667,6.75,"(40, 50]",1583985760,12.22,7.7,75,81,6.75,49.52
cz,rousinov,49.82358,14.813137,"(40, 50]",1583985761,11.11,4.1,49,81,14.81,49.82
ru,novyy sulak,43.212391,46.814258,"(40, 50]",1583985762,9.7,0.43,46,59,46.81,43.21
ro,lunca,47.616667,26.983333000000002,"(40, 50]",1583985764,7.22,3.1,75,75,26.98,47.62
ro,sinesti,47.116667,27.183333,"(40, 50]",1583985765,7.22,2.6,27,75,27.18,47.12
ch,jona,47.230265,8.841838000000001,"(40, 50]",1583985766,10.0,1.5,0,87,8.84,47.23
us,fords,40.529166700000005,-74.3163889,"(40, 50]",1583985615,9.0,0.85,20,34,-74.32,40.53
it,pisticci,40.383333,16.55,"(40, 50]",1583985769,9.44,3.6,5,93,16.55,40.38
az,qabaqcol,41.72,46.264722,"(40, 50]",1583985770,7.0,1.0,40,70,46.26,41.72
ru,yekaterinogradskaya,43.763333,44.230556,"(40, 50]",1583985771,9.0,2.0,40,86,44.23,43.76
sk,pezinok,48.283333299999995,17.2666667,"(40, 50]",1583985773,10.56,3.6,55,76,17.27,48.28
tr,yalova,40.655015,29.276933000000003,"(40, 50]",1583985480,8.33,2.1,0,87,29.28,40.66
rs,leskovac,42.998056,21.946111,"(40, 50]",1583985775,5.56,2.1,4,86,21.95,43.0
si,ziri,46.0422222,14.107222199999997,"(40, 50]",1583985777,8.33,1.5,5,93,14.11,46.04
gr,nea kerasia,40.3666667,23.2333333,"(40, 50]",1583985778,10.0,1.5,29,93,23.23,40.37
ru,krasnyy sulin,47.892208000000004,40.070367,"(40, 50]",1583985779,9.0,9.0,75,87,40.07,47.89
gr,akrolimni,40.6791667,22.2638889,"(40, 50]",1583985781,10.0,0.45,0,69,22.26,40.68
us,edgewood,47.2502778,-122.2925,"(40, 50]",1583985733,8.33,1.58,90,81,-122.29,47.25
ua,synevyr,48.487448,23.62575,"(40, 50]",1583985783,8.89,2.68,100,82,23.63,48.49
us,orono,44.883055600000006,-68.6725,"(40, 50]",1583985784,1.11,2.1,90,79,-68.67,44.88
hr,opatija,45.3391667,14.308333300000001,"(40, 50]",1583985786,7.78,1.28,14,87,14.31,45.34
ro,crucea,44.533333,28.233333000000002,"(40, 50]",1583985787,6.0,4.1,20,81,28.23,44.53
rs,novi banovci,44.954722,20.281944,"(40, 50]",1583985788,11.67,1.5,0,100,20.28,44.95
de,sonthofen,47.516667,10.283333,"(40, 50]",1583985790,10.0,6.2,0,81,10.28,47.52
ru,smolenskaya,44.788668,38.801814,"(40, 50]",1583985791,9.0,4.0,0,87,38.8,44.79
ca,port hawkesbury,45.6,-61.35,"(40, 50]",1583985792,-3.89,2.1,90,85,-61.35,45.6
de,plattling,48.783333,12.866667,"(40, 50]",1583985794,10.0,2.87,47,90,12.87,48.78
ro,cosambesti,44.566666999999995,27.433333,"(40, 50]",1583985795,7.78,1.73,8,82,27.43,44.57
gr,arnaia,40.481944399999996,23.5927778,"(40, 50]",1583985796,10.0,1.5,63,93,23.59,40.48
at,laa,48.716667,16.383333,"(40, 50]",1583985798,11.11,3.1,20,81,16.38,48.72
ro,gurbanesti,44.383333,26.7,"(40, 50]",1583985799,7.78,0.5,50,93,26.7,44.38
us,pearl river,41.0588889,-74.0222222,"(40, 50]",1583985800,9.0,2.1,40,42,-74.02,41.06
es,sant pere de ribes,41.26126,1.772075,"(40, 50]",1583985802,15.0,3.1,20,76,1.77,41.26
am,getashen,40.0433333,43.9447222,"(40, 50]",1583985803,5.0,2.1,0,75,43.94,40.04
it,tirano,46.216667,10.166667,"(40, 50]",1583985804,6.67,1.5,4,48,10.17,46.22
at,leonding,48.266667,14.25,"(40, 50]",1583985806,10.56,3.1,20,87,14.25,48.27
ro,adunati,45.133333,25.616667,"(40, 50]",1583985807,6.67,0.42,5,92,25.62,45.13
ro,asuaju de sus,47.566666999999995,23.183332999999998,"(40, 50]",1583985808,8.89,2.1,75,93,23.18,47.57
it,roseto degli abruzzi,42.683333000000005,14.016667000000002,"(40, 50]",1583985810,7.22,1.5,0,86,14.02,42.68
ro,stoicanesti,44.183333000000005,24.633333,"(40, 50]",1583985811,6.67,0.5,9,93,24.63,44.18
ca,ingersoll,43.033333,-80.883333,"(40, 50]",1583985812,1.11,2.6,75,86,-80.88,43.03
ua,dmytrivka,47.936113,38.936607,"(40, 50]",1583985813,7.97,6.66,100,89,38.94,47.94
ro,grivita,44.733333,27.283333000000002,"(40, 50]",1583985815,7.78,1.0,20,80,27.28,44.73
in,khair,27.95,77.833333,"(20, 30]",1583985816,19.58,5.04,40,73,77.83,27.95
in,akaltara,22.016667,82.43333299999999,"(20, 30]",1583985817,24.71,2.12,95,53,82.43,22.02
in,malpura,26.283333000000002,75.383333,"(20, 30]",1583985819,19.03,3.1,0,25,75.38,26.28
mx,tekax,20.2,-89.283333,"(20, 30]",1583985820,23.48,1.91,85,60,-89.28,20.2
in,raisinghnagar,29.535833,73.449167,"(20, 30]",1583985821,17.87,3.91,0,57,73.45,29.54
in,pali,25.766667,73.333333,"(20, 30]",1583985615,17.17,5.73,0,47,73.33,25.77
pk,matli,25.043115,68.655677,"(20, 30]",1583985824,18.51,5.27,0,9,68.66,25.04
us,bayonet point,28.326388899999998,-82.6836111,"(20, 30]",1583985641,20.0,1.5,1,93,-82.68,28.33
pk,tando ghulam ali,25.124332,68.890127,"(20, 30]",1583985827,19.01,5.2,0,13,68.89,25.12
mx,constitucion,25.036944000000002,-111.66444399999999,"(20, 30]",1583985828,22.41,8.62,100,69,-111.66,25.04
mx,suchil,23.633333,-103.916667,"(20, 30]",1583985829,17.29,2.64,100,34,-103.92,23.63
in,pachperwa,27.516666999999998,82.65,"(20, 30]",1583985830,23.91,2.7,0,44,82.65,27.52
cn,sanming,26.248611,117.61861100000002,"(20, 30]",1583985832,14.33,1.06,97,92,117.62,26.25
in,pachmarhi,22.466667,78.43333299999999,"(20, 30]",1583985833,24.29,0.45,14,32,78.43,22.47
mx,tampico,22.216667,-97.85,"(20, 30]",1583985816,23.0,3.1,40,88,-97.85,22.22
in,amarpatan,24.316667000000002,80.983333,"(20, 30]",1583985836,24.19,1.62,100,58,80.98,24.32
in,aklera,24.416667,76.56666700000001,"(20, 30]",1583985837,21.17,3.81,0,41,76.57,24.42
mx,san ignacio,23.916667,-106.41666699999999,"(20, 30]",1583985838,24.24,0.98,98,43,-106.42,23.92
in,babina,25.25,78.466667,"(20, 30]",1583985840,22.58,2.46,0,36,78.47,25.25
in,sitarganj,28.933333,79.7,"(20, 30]",1583985841,18.82,1.75,59,71,79.7,28.93
in,raypur,22.410833,88.50944399999999,"(20, 30]",1583985842,27.22,3.02,20,69,88.51,22.41
in,seondha,26.157778,78.77972199999999,"(20, 30]",1583985844,23.7,1.82,0,46,78.78,26.16
us,cooper city,26.0569444,-80.2719444,"(20, 30]",1583985845,23.89,1.5,8,73,-80.27,26.06
mx,pabellon de arteaga,22.15,-102.25,"(20, 30]",1583985846,22.0,1.5,75,33,-102.25,22.15
cn,zunyi,27.543056,106.82305600000001,"(20, 30]",1583985848,11.21,1.37,100,81,106.82,27.54
sa,tabuk,28.399804,36.571505,"(20, 30]",1583985849,20.0,2.6,75,40,36.57,28.4
mx,saltillo,25.416667,-101.0,"(20, 30]",1583985850,23.33,1.37,75,45,-101.0,25.42
in,etawah,26.7769,79.0239,"(20, 30]",1583985852,20.71,3.39,2,72,79.02,26.78
in,nokha,27.6,73.416667,"(20, 30]",1583985853,18.15,5.85,0,32,73.42,27.6
pk,surab,28.491389,66.2585,"(20, 30]",1583985854,-1.82,10.57,0,57,66.26,28.49
us,morgan city,29.699166700000003,-91.2066667,"(20, 30]",1583985855,19.44,2.06,1,88,-91.21,29.7
in,bidhuna,26.8022,79.5088,"(20, 30]",1583985857,20.72,2.69,0,72,79.51,26.8
mx,fresnillo,23.166667,-102.883333,"(20, 30]",1583985600,21.0,1.14,75,37,-102.88,23.17
cn,jingdezhen,29.2947,117.20788700000001,"(20, 30]",1583985859,12.75,1.05,100,83,117.21,29.29
us,corpus christi,27.8002778,-97.39611109999998,"(20, 30]",1583985861,22.0,5.1,90,100,-97.4,27.8
in,kakrala,27.8927,79.1965,"(20, 30]",1583985862,20.06,4.36,53,68,79.2,27.89
in,ashoknagar,24.566667000000002,77.716667,"(20, 30]",1583985863,20.51,4.04,0,44,77.72,24.57
mx,dzan,20.383333,-89.466667,"(20, 30]",1583985865,24.0,3.1,5,83,-89.47,20.38
in,kaithal,29.8,76.383333,"(20, 30]",1583985866,15.53,6.75,74,89,76.38,29.8
in,sapatgram,26.333441999999998,90.109048,"(20, 30]",1583985867,24.79,4.29,11,40,90.11,26.33
pk,sarhari,26.095895000000002,68.478148,"(20, 30]",1583985869,17.0,4.1,0,63,68.48,26.1
in,amod,21.983333,72.9,"(20, 30]",1583985870,20.0,2.1,0,60,72.9,21.98
mx,villa union,23.2,-106.233333,"(20, 30]",1583985871,23.89,1.0,75,88,-106.23,23.2
in,phaphund,26.6,79.466667,"(20, 30]",1583985872,22.07,2.53,0,76,79.47,26.6
in,harij,23.7,71.9,"(20, 30]",1583985874,18.95,1.49,0,53,71.9,23.7
us,margate,26.2441667,-80.2066667,"(20, 30]",1583985875,24.0,1.5,32,73,-80.21,26.24
in,titron,29.668056,77.3225,"(20, 30]",1583985876,16.63,4.12,0,88,77.32,29.67
in,rajkot,22.3,70.783333,"(20, 30]",1583985878,19.0,2.1,0,55,70.78,22.3
in,pilani,28.3684,75.6041,"(20, 30]",1583985879,19.0,3.61,0,45,75.6,28.37
mx,valtierrilla,20.485278,-101.251944,"(20, 30]",1583985880,22.0,2.77,40,40,-101.25,20.49
cn,nanjing,32.061667,118.777778,"(30, 40]",1583985632,19.44,3.0,62,42,118.78,32.06
tr,beysehir,37.677347999999995,31.724577000000004,"(30, 40]",1583985883,3.58,1.3,68,62,31.72,37.68
us,wilmington,39.7458333,-75.5469444,"(30, 40]",1583985591,8.0,1.48,1,81,-75.55,39.75
us,salinas,36.6777778,-121.65444440000002,"(30, 40]",1583985886,15.56,1.74,75,76,-121.65,36.68
jp,shimizu,35.016667,138.48333300000002,"(30, 40]",1583985887,16.67,6.2,40,54,138.48,35.02
us,carson,33.83138889999999,-118.2811111,"(30, 40]",1583985888,18.0,2.6,1,77,-118.28,33.83
tn,akkudah,35.869104,10.565302,"(30, 40]",1583985889,11.11,1.0,20,100,10.57,35.87
cn,xianshuigu,38.985,117.382778,"(30, 40]",1583985891,13.0,9.0,87,37,117.38,38.99
us,tipp city,39.9583333,-84.17222220000001,"(30, 40]",1583985892,9.0,1.3,90,100,-84.17,39.96
tr,bingol,38.884722,40.493889,"(30, 40]",1583985893,1.79,1.75,100,70,40.49,38.88
cn,jingcheng,32.014167,120.2625,"(30, 40]",1583985895,19.44,0.89,57,45,120.26,32.01
us,henderson,36.32944439999999,-78.39944440000001,"(30, 40]",1583985696,16.67,0.17,1,87,-78.4,36.33
es,sanlucar la mayor,37.38714,-6.201059,"(30, 40]",1583985897,16.67,2.1,33,76,-6.2,37.39
jp,kasama,36.383333,140.26666699999998,"(30, 40]",1583985899,14.44,1.0,75,30,140.27,36.38
it,valguarnera caropepe,37.5,14.383332999999999,"(30, 40]",1583985900,10.0,2.6,0,86,14.38,37.5
us,southern pines,35.173888899999994,-79.3925,"(30, 40]",1583985873,18.33,1.9,75,100,-79.39,35.17
us,laguna hills,33.6125,-117.71194440000001,"(30, 40]",1583985903,18.0,1.5,75,72,-117.71,33.61
us,baldwin park,34.0852778,-117.96,"(30, 40]",1583985904,18.0,1.5,75,72,-117.96,34.09
us,denver,39.7391667,-104.98416670000002,"(30, 40]",1583985756,13.33,3.6,1,50,-104.98,39.74
us,rowland heights,33.976111100000004,-117.90444440000002,"(30, 40]",1583985906,18.0,1.5,75,72,-117.9,33.98
jp,takanabe,32.133333,131.5,"(30, 40]",1583985908,13.0,2.6,75,50,131.5,32.13
us,kerrville,30.0472222,-99.14,"(30, 40]",1583985909,22.22,2.1,1,73,-99.14,30.05
us,reedley,36.596388899999994,-119.44944440000002,"(30, 40]",1583985830,19.0,0.44,0,63,-119.45,36.6
in,ambala,30.378333,76.780833,"(30, 40]",1583985912,17.12,4.65,17,74,76.78,30.38
us,shively,38.2,-85.8227778,"(30, 40]",1583985913,11.0,1.65,90,87,-85.82,38.2
us,murrieta,33.5538889,-117.21305559999999,"(30, 40]",1583985721,18.0,1.31,75,93,-117.21,33.55
jp,abiko,35.866667,140.01666699999998,"(30, 40]",1583985916,15.56,1.0,75,30,140.02,35.87
jp,imabari,34.066666999999995,132.966667,"(30, 40]",1583985917,13.89,3.1,20,54,132.97,34.07
gr,nea makri,38.0833333,23.9833333,"(30, 40]",1583985918,11.11,1.0,20,86,23.98,38.08
gr,oia,36.466666700000005,25.3666667,"(30, 40]",1583985920,13.89,7.2,24,76,25.37,36.47
jp,narashino,35.683333000000005,140.033333,"(30, 40]",1583985921,15.56,3.1,20,30,140.03,35.68
jp,ritto,35.027452000000004,135.99971200000002,"(30, 40]",1583985922,13.33,2.6,20,37,136.0,35.03
cn,yishui,35.784721999999995,118.628056,"(30, 40]",1583985773,15.17,5.78,0,45,118.63,35.78
gr,ayios serafim,38.8,22.7,"(30, 40]",1583985785,9.44,2.1,6,81,22.7,38.8
us,dublin,32.5402778,-82.90388890000001,"(30, 40]",1583985926,17.0,1.5,1,100,-82.9,32.54
us,saint marys,30.7302778,-81.5466667,"(30, 40]",1583985927,20.0,2.37,90,82,-81.55,30.73
jp,tawaramoto,34.55,135.8,"(30, 40]",1583985929,14.44,2.6,20,34,135.8,34.55
jp,tono,39.316666999999995,141.533333,"(30, 40]",1583985930,8.0,3.6,75,49,141.53,39.32
tj,garavuti,37.5602778,68.4525,"(30, 40]",1583985931,8.0,0.26,90,87,68.45,37.56
it,castelvetrano,37.683333000000005,12.783333,"(30, 40]",1583985933,11.67,2.32,0,87,12.78,37.68
us,lamont,35.2597222,-118.91333329999999,"(30, 40]",1583985934,16.0,1.5,1,77,-118.91,35.26
gr,makrinitsa,39.4,22.9833333,"(30, 40]",1583985935,9.44,2.6,7,87,22.98,39.4
us,grand junction,39.063888899999995,-108.55,"(30, 40]",1583985937,7.78,1.55,75,87,-108.55,39.06
us,duncanville,32.6516667,-96.9080556,"(30, 40]",1583985938,24.0,4.1,1,69,-96.91,32.65
us,coffeyville,37.0372222,-95.6161111,"(30, 40]",1583985939,16.11,1.5,1,82,-95.62,37.04
jp,numazu,35.1,138.866667,"(30, 40]",1583985843,14.0,5.7,75,47,138.87,35.1
gr,ayios yeoryios,38.4,22.9333333,"(30, 40]",1583985942,11.0,2.0,0,100,22.93,38.4
us,walnut park,33.96805560000001,-118.22416670000001,"(30, 40]",1583985943,18.0,2.6,20,72,-118.22,33.97
es,silla,39.366667,-0.416667,"(30, 40]",1583985944,14.44,1.5,100,81,-0.42,39.37
us,pomona,34.0552778,-117.7513889,"(30, 40]",1583985707,19.0,1.5,75,72,-117.75,34.06
hn,santa maria del real,14.766666699999998,-85.95,"(10, 20]",1583985947,16.75,1.53,11,98,-85.95,14.77
gt,san lucas toliman,14.633332999999999,-91.133333,"(10, 20]",1583985948,17.0,6.2,20,77,-91.13,14.63
cr,upala,10.897917999999999,-85.01453599999999,"(10, 20]",1583985950,27.0,9.8,0,65,-85.01,10.9
sv,colon,13.55,-88.5666667,"(10, 20]",1583985951,28.0,1.0,53,74,-88.57,13.55
ph,burabod,13.2686,123.4162,"(10, 20]",1583985952,28.4,4.1,40,61,123.42,13.27
ph,lawang kupang,15.3489,120.8582,"(10, 20]",1583985954,29.0,1.0,75,58,120.86,15.35
mx,socoltenango,16.216667,-92.25,"(10, 20]",1583985955,20.01,4.66,0,65,-92.25,16.22
ph,tinongan,10.215,123.035278,"(10, 20]",1583985956,26.41,7.3,90,65,123.04,10.22
ph,san felipe,15.5014,120.9078,"(10, 20]",1583985957,29.0,1.0,75,58,120.91,15.5
hn,san joaquin,15.05,-88.9,"(10, 20]",1583985959,15.94,0.61,1,95,-88.9,15.05
ph,pance,15.6885,120.6201,"(10, 20]",1583985960,29.0,1.0,75,58,120.62,15.69
td,oum hadjer,13.3,19.6833333,"(10, 20]",1583985961,21.13,5.95,63,13,19.68,13.3
ph,merida,10.9098,124.5376,"(10, 20]",1583985963,29.9,4.39,47,60,124.54,10.91
mx,jiutepec,18.866667,-99.18333299999999,"(10, 20]",1583985964,25.56,1.5,75,51,-99.18,18.87
ph,ligaya,12.659929,120.892315,"(10, 20]",1583985965,32.12,7.25,33,45,120.89,12.66
gt,moyuta,14.038610999999998,-90.080833,"(10, 20]",1583985967,19.93,2.64,0,75,-90.08,14.04
cr,mercedes,10.006955,-84.133963,"(10, 20]",1583985968,23.0,8.2,33,53,-84.13,10.01
ph,minapasuk,10.69885,123.349002,"(10, 20]",1583985969,28.13,3.72,62,66,123.35,10.7
ph,tiaong,13.953610999999999,121.316111,"(10, 20]",1583985971,32.22,2.24,46,69,121.32,13.95
ng,dutse,11.759404,9.339207,"(10, 20]",1583985972,21.79,4.72,100,16,9.34,11.76
ph,san fernando,16.3892,121.1324,"(10, 20]",1583985974,24.6,2.07,50,62,121.13,16.39
ph,agno,16.1161,119.7993,"(10, 20]",1583985975,32.74,7.0,8,44,119.8,16.12
gt,santa cruz balanya,14.687222,-90.915,"(10, 20]",1583985977,17.0,6.2,20,77,-90.92,14.69
mx,cuanala,19.1,-98.31666700000001,"(10, 20]",1583985979,14.99,1.57,23,53,-98.32,19.1
in,tarapur,19.85,72.7,"(10, 20]",1583985980,22.98,5.36,44,69,72.7,19.85
mx,tlalixtac,17.066667000000002,-96.65,"(10, 20]",1583985981,12.14,2.8,0,84,-96.65,17.07
th,klaeng,12.779722,101.648309,"(10, 20]",1583985983,31.67,4.94,5,61,101.65,12.78
in,pallattur,10.15,78.8,"(10, 20]",1583985984,29.0,2.6,40,66,78.8,10.15
in,tirukkoyilur,11.95,79.2,"(10, 20]",1583985985,27.0,1.0,40,78,79.2,11.95
hn,san francisco,15.65,-87.05,"(10, 20]",1583985987,25.0,1.0,75,88,-87.05,15.65
ph,baay,18.1188,120.5753,"(10, 20]",1583985988,29.0,3.6,20,83,120.58,18.12
in,kodungallur,10.222222,76.199167,"(10, 20]",1583985989,30.0,1.5,75,74,76.2,10.22
ph,balaogan,13.4328,123.2818,"(10, 20]",1583985990,28.4,4.1,40,61,123.28,13.43
th,takhli,15.263360999999998,100.343778,"(10, 20]",1583985992,36.11,5.06,0,39,100.34,15.26
mx,magdalena teitipac,16.916667,-96.6,"(10, 20]",1583985993,12.14,2.8,0,84,-96.6,16.92
vn,hoi an,15.879444,108.335,"(10, 20]",1583985994,31.0,2.1,20,66,108.34,15.88
vn,ben tre,10.233333,106.38333300000001,"(10, 20]",1583985935,31.0,5.3,28,59,106.38,10.23
hn,las conchas,13.325277800000002,-87.3955556,"(10, 20]",1583985997,26.68,0.44,79,54,-87.4,13.33
in,vada,19.65,73.133333,"(10, 20]",1583985998,26.0,2.6,40,57,73.13,19.65
ph,castillo,13.7313,123.1166,"(10, 20]",1583985999,27.79,1.9,70,69,123.12,13.73
ni,laguna de perlas,12.35,-83.66666670000001,"(10, 20]",1583986001,26.83,7.55,0,78,-83.67,12.35
ph,pasuquin,18.3328,120.6177,"(10, 20]",1583986002,29.0,3.6,20,83,120.62,18.33
sd,babanusah,11.333333300000001,27.8,"(10, 20]",1583986003,28.35,5.25,100,18,27.8,11.33
mx,chiapa,16.7,-93.0,"(10, 20]",1583986005,24.0,8.7,5,64,-93.0,16.7
mx,caltzontzin,19.416667,-102.0,"(10, 20]",1583986006,22.0,1.94,75,60,-102.0,19.42
ph,aquino,11.8221,122.1088,"(10, 20]",1583986007,27.29,10.73,36,74,122.11,11.82
ph,solo,13.746914000000002,120.90118899999999,"(10, 20]",1583985800,29.44,2.24,16,69,120.9,13.75
mx,jalpa,18.133333,-93.083333,"(10, 20]",1583986010,22.0,1.73,40,100,-93.08,18.13
ph,carigara,11.299167,124.675556,"(10, 20]",1583986011,28.83,3.43,20,62,124.68,11.3
mx,ameyalco,19.316667000000002,-99.466667,"(10, 20]",1583986012,21.0,1.5,75,51,-99.47,19.32
br,diamantina,-18.25,-43.6,"(-20, -10]",1583986014,17.37,2.22,38,99,-43.6,-18.25
wf,vaitupu,-13.233333300000002,-176.15,"(-20, -10]",1583986015,29.28,3.63,63,68,-176.15,-13.23
br,mairi,-11.716667,-40.133333,"(-20, -10]",1583986016,23.19,2.12,96,90,-40.13,-11.72
pe,sayan,-11.134166699999998,-77.1938889,"(-20, -10]",1583986017,12.05,0.88,100,86,-77.19,-11.13
yt,mtsamboro,-12.696666699999998,45.0666667,"(-20, -10]",1583986019,28.0,2.6,100,88,45.07,-12.7
bo,llallagua,-18.4166667,-66.6333333,"(-20, -10]",1583986020,11.0,2.1,40,82,-66.63,-18.42
br,lagoa santa,-19.633333,-43.883333,"(-20, -10]",1583986021,22.0,4.1,0,78,-43.88,-19.63
br,sao cristovao,-11.016667,-37.2,"(-20, -10]",1583986023,29.0,4.1,20,70,-37.2,-11.02
pf,papeari,-17.75,-149.35,"(-20, -10]",1583986024,30.0,4.1,40,70,-149.35,-17.75
pe,concepcion,-11.916666699999999,-75.2833333,"(-20, -10]",1583986025,3.8,1.93,100,91,-75.28,-11.92
br,ji-parana,-10.833333,-61.966667,"(-20, -10]",1583986026,23.63,1.58,100,96,-61.97,-10.83
br,abadiania,-16.1,-48.8,"(-20, -10]",1583986028,20.15,0.92,100,94,-48.8,-16.1
ws,apia,-13.833333300000001,-171.7333333,"(-20, -10]",1583986029,27.0,2.6,75,94,-171.73,-13.83
br,santana do paraiso,-19.366667,-42.533333,"(-20, -10]",1583986030,19.78,1.06,25,98,-42.53,-19.37
bo,tarabuco,-19.1666667,-64.91666670000001,"(-20, -10]",1583986032,11.95,1.17,8,89,-64.92,-19.17
br,igreja nova,-10.116667,-36.65,"(-20, -10]",1583986033,24.6,2.27,0,87,-36.65,-10.12
km,mutsamudu,-12.1627778,44.3963889,"(-20, -10]",1583986034,29.21,3.84,65,74,44.4,-12.16
br,valenca,-13.366667000000001,-39.083333,"(-20, -10]",1583986036,23.26,0.63,88,98,-39.08,-13.37
br,dores do indaia,-19.45,-45.6,"(-20, -10]",1583986037,18.73,1.48,0,95,-45.6,-19.45
mz,mocuba,-16.840277800000003,38.256944399999995,"(-20, -10]",1583986038,24.27,1.3,42,93,38.26,-16.84
br,iaciara,-14.15,-46.666667,"(-20, -10]",1583986039,20.77,1.17,100,96,-46.67,-14.15
sh,jamestown,-15.933333300000001,-5.7166667,"(-20, -10]",1583986041,24.11,4.84,34,67,-5.72,-15.93
br,iturama,-19.733333,-50.183333000000005,"(-20, -10]",1583986042,22.26,2.35,0,79,-50.18,-19.73
zm,luanshya,-13.133333300000002,28.4,"(-20, -10]",1583986043,17.53,1.54,100,99,28.4,-13.13
br,montes claros,-16.716667,-43.866667,"(-20, -10]",1583986045,19.26,1.86,1,94,-43.87,-16.72
br,itinga,-16.6,-41.783333,"(-20, -10]",1583986046,19.8,1.15,100,98,-41.78,-16.6
pe,rio grande,-14.519722199999999,-75.20138890000001,"(-20, -10]",1583986047,18.97,1.3,67,75,-75.2,-14.52
mw,lilongwe,-13.983333300000002,33.783333299999995,"(-20, -10]",1583986048,17.32,0.71,93,97,33.78,-13.98
br,serrinha,-11.65,-39.0,"(-20, -10]",1583986050,23.12,3.82,100,93,-39.0,-11.65
mw,dowa,-13.65,33.9333333,"(-20, -10]",1583986051,17.84,1.64,100,98,33.93,-13.65
br,monte carmelo,-18.716667,-47.483333,"(-20, -10]",1583986052,19.0,2.26,0,93,-47.48,-18.72
br,rialma,-15.3,-49.566666999999995,"(-20, -10]",1583986054,20.75,1.08,100,95,-49.57,-15.3
br,alvorada,-12.47,-49.082221999999994,"(-20, -10]",1583986055,23.01,1.01,100,96,-49.08,-12.47
br,conselheiro pena,-19.166667,-41.5,"(-20, -10]",1583986056,20.33,1.52,11,93,-41.5,-19.17
br,caratinga,-19.783333,-42.133333,"(-20, -10]",1583986057,15.97,1.06,10,97,-42.13,-19.78
mg,ankazobe,-18.3166667,47.1166667,"(-20, -10]",1583986059,19.0,3.1,75,88,47.12,-18.32
bo,guanay,-15.483333300000002,-67.8833333,"(-20, -10]",1583986060,18.49,0.49,53,96,-67.88,-15.48
br,acucena,-19.066667000000002,-42.533333,"(-20, -10]",1583986061,18.77,0.8,4,97,-42.53,-19.07
br,padre paraiso,-17.1,-41.516667,"(-20, -10]",1583986063,19.38,2.44,100,98,-41.52,-17.1
br,itabaiana,-10.683333,-37.433333000000005,"(-20, -10]",1583986064,29.0,4.1,20,70,-37.43,-10.68
pe,chivay,-15.638333300000001,-71.6011111,"(-20, -10]",1583986065,3.85,1.69,100,70,-71.6,-15.64
br,papagaios,-19.533333,-44.75,"(-20, -10]",1583986066,18.47,2.94,0,89,-44.75,-19.53
br,carmo do rio verde,-15.35,-49.7,"(-20, -10]",1583986068,20.75,1.08,100,95,-49.7,-15.35
mg,antananarivo,-18.9166667,47.5166667,"(-20, -10]",1583986069,19.0,3.1,75,88,47.52,-18.92
pe,mazamari,-11.35,-74.5666667,"(-20, -10]",1583986070,16.0,1.87,80,92,-74.57,-11.35
br,conceicao do coite,-11.55,-39.266667,"(-20, -10]",1583986072,24.06,4.45,100,86,-39.27,-11.55
pe,juliaca,-15.5,-70.1333333,"(-20, -10]",1583985780,6.69,2.01,92,84,-70.13,-15.5
mg,sambava,-14.266666699999998,50.1666667,"(-20, -10]",1583985936,24.39,0.78,100,87,50.17,-14.27
pe,paucartambo,-13.315555599999998,-71.5916667,"(-20, -10]",1583986075,11.0,1.69,75,71,-71.59,-13.32
bo,potosi,-19.5836111,-65.7530556,"(-20, -10]",1583985850,8.92,1.75,82,92,-65.75,-19.58
tz,kisesa,-3.0833333,34.15,"(-10, 0]",1583985830,17.64,1.37,97,93,34.15,-3.08
br,uarini,-2.916667,-65.133333,"(-10, 0]",1583986079,23.97,1.47,97,97,-65.13,-2.92
id,ceper,-7.674167,110.67888899999998,"(-10, 0]",1583986080,28.0,3.1,40,83,110.68,-7.67
pe,papayal,-4.0422222,-80.9580556,"(-10, 0]",1583986082,25.25,1.36,76,80,-80.96,-4.04
ga,ndjole,-0.18333329999999998,10.75,"(-10, 0]",1583986083,22.53,0.88,100,99,10.75,-0.18
id,karang tengah,-6.9086110000000005,106.910556,"(-10, 0]",1583986084,30.0,2.5,87,80,106.91,-6.91
id,bae,-6.7674,110.8541,"(-10, 0]",1583986086,31.0,5.1,20,70,110.85,-6.77
ec,canar,-2.55,-78.9333333,"(-10, 0]",1583986087,15.0,1.5,75,87,-78.93,-2.55
tz,ndago,-4.6,34.35,"(-10, 0]",1583986088,16.21,1.38,84,96,34.35,-4.6
pe,chota,-6.55,-78.65,"(-10, 0]",1583986089,12.35,0.91,100,90,-78.65,-6.55
br,mogeiro,-7.3,-35.466667,"(-10, 0]",1583986091,26.0,1.55,40,94,-35.47,-7.3
ke,mwingi,-0.9333333,38.0666667,"(-10, 0]",1583986092,19.53,0.66,100,91,38.07,-0.93
ec,pedro carbo,-1.8333332999999998,-80.2333333,"(-10, 0]",1583986093,25.56,4.1,75,88,-80.23,-1.83
br,pianco,-7.2,-37.95,"(-10, 0]",1583986095,23.06,1.37,61,94,-37.95,-7.2
co,leticia,-4.215278,-69.940556,"(-10, 0]",1583985962,26.0,0.62,40,94,-69.94,-4.22
br,jucurutu,-6.033333,-37.016667,"(-10, 0]",1583986097,25.89,1.97,88,84,-37.02,-6.03
br,jose de freitas,-4.75,-42.583333,"(-10, 0]",1583986098,26.0,3.1,75,88,-42.58,-4.75
br,maraa,-1.833333,-65.366667,"(-10, 0]",1583986100,24.21,0.68,100,92,-65.37,-1.83
id,pamekasan,-7.1568,113.4746,"(-10, 0]",1583986025,29.9,2.34,100,64,113.47,-7.16
pe,pucara,-7.517222200000001,-77.84527779999999,"(-10, 0]",1583986102,11.53,1.73,100,89,-77.85,-7.52
pe,zarumilla,-3.5030556000000006,-80.27305559999999,"(-10, 0]",1583986104,32.0,1.5,90,33,-80.27,-3.5
tz,muriti,-1.9833333,32.9166667,"(-10, 0]",1583986105,21.0,4.79,75,94,32.92,-1.98
id,serpong,-6.316944,106.66416699999999,"(-10, 0]",1583986106,34.44,3.1,40,74,106.66,-6.32
br,boca da mata,-9.6,-36.25,"(-10, 0]",1583986107,25.0,1.0,8,94,-36.25,-9.6
br,crato,-7.233333,-39.383333,"(-10, 0]",1583986109,21.45,0.99,67,93,-39.38,-7.23
cd,kananga,-5.8958330000000005,22.417778,"(-10, 0]",1583986110,20.93,2.01,100,97,22.42,-5.9
ke,kerugoya,-0.5,37.283333299999995,"(-10, 0]",1583986111,16.61,1.45,70,80,37.28,-0.5
ec,coronel mariduena,-2.2,-79.41666670000001,"(-10, 0]",1583986113,25.56,4.1,75,88,-79.42,-2.2
tz,old shinyanga,-3.55,33.4,"(-10, 0]",1583986114,18.79,2.27,99,94,33.4,-3.55
br,itaueira,-7.6,-43.033333,"(-10, 0]",1583986115,23.38,0.82,35,87,-43.03,-7.6
tz,chala,-7.5833333,31.266666700000002,"(-10, 0]",1583986116,16.0,0.3,90,93,31.27,-7.58
br,sao joao dos patos,-6.5,-43.7,"(-10, 0]",1583986118,22.68,0.56,58,92,-43.7,-6.5
id,dampit,-8.042222,112.51527800000001,"(-10, 0]",1583986119,29.38,0.63,96,53,112.52,-8.04
br,manaira,-7.7,-38.166667,"(-10, 0]",1583986120,22.31,1.9,66,87,-38.17,-7.7
ga,mouila,-1.8666667000000001,11.016666699999998,"(-10, 0]",1583986122,22.28,0.38,93,99,11.02,-1.87
tz,katoro,-1.3997222,31.5002778,"(-10, 0]",1583986123,20.0,5.1,75,94,31.5,-1.4
br,esperanca,-7.016667,-35.85,"(-10, 0]",1583986124,21.9,3.16,76,93,-35.85,-7.02
id,kendari,-3.945,122.49888899999999,"(-10, 0]",1583986125,29.79,2.74,37,75,122.5,-3.95
br,moreno,-8.116667,-35.1,"(-10, 0]",1583986127,29.0,3.6,40,74,-35.1,-8.12
br,natal,-5.783333,-35.216667,"(-10, 0]",1583986128,25.0,1.5,75,94,-35.22,-5.78
br,itacoatiara,-3.05,-58.433333,"(-10, 0]",1583986129,25.18,1.13,88,80,-58.43,-3.05
ec,machala,-3.2666667,-79.9666667,"(-10, 0]",1583986131,32.0,1.5,90,33,-79.97,-3.27
br,santa cruz,-6.216667,-36.016667,"(-10, 0]",1583986132,23.95,1.04,99,87,-36.02,-6.22
id,paseh,-6.803889,107.867222,"(-10, 0]",1583986133,26.84,1.76,34,70,107.87,-6.8
pg,kiunga,-6.116666700000001,141.3,"(-10, 0]",1583986134,31.56,1.45,56,57,141.3,-6.12
tz,mwadui,-3.55,33.6,"(-10, 0]",1583986136,18.79,2.27,99,94,33.6,-3.55
id,cilegon,-6.0144,106.0542,"(-10, 0]",1583986137,30.56,3.1,40,74,106.05,-6.01
ec,ambato,-1.25,-78.6166667,"(-10, 0]",1583986138,12.0,2.6,75,81,-78.62,-1.25
tz,iguguno,-4.5666667,34.6333333,"(-10, 0]",1583986140,16.21,1.38,84,96,34.63,-4.57
ec,catamayo,-3.9833333,-79.35,"(-10, 0]",1583986141,17.16,1.16,99,97,-79.35,-3.98
cl,chimbarongo,-34.7,-71.05,"(-90, -30]",1583986142,23.0,0.5,90,43,-71.05,-34.7
br,bage,-31.333333000000003,-54.1,"(-90, -30]",1583986144,23.0,5.7,100,78,-54.1,-31.33
au,warrnambool,-38.38176,142.487991,"(-90, -30]",1583986145,31.11,5.35,90,30,142.49,-38.38
cl,rancagua,-34.17083,-70.74444,"(-90, -30]",1583986146,11.18,0.43,20,47,-70.74,-34.17
za,oudtshoorn,-33.592343,22.205482,"(-90, -30]",1583986147,16.0,1.0,75,100,22.21,-33.59
za,george,-33.963,22.461727,"(-90, -30]",1583986149,16.0,1.0,75,100,22.46,-33.96
br,dom pedrito,-30.983333000000002,-54.666667000000004,"(-90, -30]",1583986150,23.74,7.85,100,68,-54.67,-30.98
au,sawtell,-30.364590000000003,153.10141000000002,"(-90, -30]",1583986151,26.0,6.2,68,53,153.1,-30.36
nz,tirau,-37.983333,175.75,"(-90, -30]",1583986153,25.56,3.13,0,30,175.75,-37.98
cl,paine,-33.816666999999995,-70.75,"(-90, -30]",1583986154,21.0,4.1,20,49,-70.75,-33.82
br,palmares do sul,-30.266666999999998,-50.516667,"(-90, -30]",1583986155,23.0,3.6,1,94,-50.52,-30.27
ar,viedma,-40.813452000000005,-62.996676,"(-90, -30]",1583986156,19.34,2.53,0,54,-63.0,-40.81
br,cidreira,-30.183333,-50.2,"(-90, -30]",1583986158,24.03,10.55,1,85,-50.2,-30.18
cl,coihueco,-36.616667,-71.833333,"(-90, -30]",1583986159,17.0,1.0,65,59,-71.83,-36.62
au,horsham,-36.711311,142.199814,"(-90, -30]",1583986160,30.68,5.08,0,26,142.2,-36.71
uy,dolores,-33.5441667,-58.197222200000006,"(-90, -30]",1583986162,19.49,3.02,81,92,-58.2,-33.54
au,taree,-31.91099,152.453873,"(-90, -30]",1583986163,25.0,3.1,66,47,152.45,-31.91
au,morwell,-38.234759999999994,146.39498899999998,"(-90, -30]",1583986164,31.11,2.24,52,33,146.39,-38.23
au,new norfolk,-42.78075,147.05938700000002,"(-90, -30]",1583986166,23.33,3.1,70,53,147.06,-42.78
au,muswellbrook,-32.261181,150.89009099999998,"(-90, -30]",1583986167,27.22,3.58,5,36,150.89,-32.26
nz,wairoa,-39.033333,177.366667,"(-90, -30]",1583986168,17.22,4.92,77,70,177.37,-39.03
au,hobart,-42.883209,147.331665,"(-90, -30]",1583986169,23.33,3.1,38,53,147.33,-42.88
za,stellenbosch,-33.934621,18.866761999999998,"(-90, -30]",1583986171,17.22,4.6,75,100,18.87,-33.93
ar,rafaela,-31.250332,-61.486695999999995,"(-90, -30]",1583986172,22.78,0.89,5,58,-61.49,-31.25
au,forbes,-33.384361,148.007599,"(-90, -30]",1583986173,27.22,0.45,13,34,148.01,-33.38
uy,mercedes,-33.2558333,-58.0191667,"(-90, -30]",1583986175,19.49,3.02,81,92,-58.02,-33.26
nz,rakaia,-43.75,172.01666699999998,"(-90, -30]",1583986176,21.67,2.1,0,40,172.02,-43.75
br,pinheiro machado,-31.566667,-53.38333299999999,"(-90, -30]",1583986177,20.0,4.83,100,91,-53.38,-31.57
nz,kawerau,-38.1,176.7,"(-90, -30]",1583986178,22.22,1.79,0,53,176.7,-38.1
za,whittlesea,-32.175877,26.824371999999997,"(-90, -30]",1583986180,14.8,2.02,100,94,26.82,-32.18
nz,tolaga bay,-38.366667,178.3,"(-90, -30]",1583986181,17.28,11.56,61,75,178.3,-38.37
uy,san carlos,-34.8,-54.9166667,"(-90, -30]",1583986182,22.0,4.6,90,88,-54.92,-34.8
nz,bluff,-46.6,168.333333,"(-90, -30]",1583986184,15.0,4.92,46,73,168.33,-46.6
nz,hastings,-39.65,176.833333,"(-90, -30]",1583986185,17.29,6.72,90,63,176.83,-39.65
nz,waitara,-38.925,174.25,"(-90, -30]",1583986186,18.89,6.71,0,51,174.25,-38.92
ar,san francisco,-31.427971000000003,-62.08265600000001,"(-90, -30]",1583986188,22.78,0.89,0,87,-62.08,-31.43
za,willowmore,-33.292646999999995,23.489537,"(-90, -30]",1583986189,14.94,4.8,99,94,23.49,-33.29
nz,ahipara,-35.166667,173.166667,"(-90, -30]",1583986190,22.78,3.88,3,87,173.17,-35.17
nz,kerikeri,-35.216667,173.966667,"(-90, -30]",1583986191,22.78,1.34,67,79,173.97,-35.22
nz,waipawa,-41.412222,175.515278,"(-90, -30]",1583986193,16.67,7.2,83,55,175.52,-41.41
nz,riverton,-46.35,168.01666699999998,"(-90, -30]",1583986194,15.0,4.92,56,73,168.02,-46.35
au,mildura,-34.185509,142.162506,"(-90, -30]",1583986195,32.22,5.1,91,27,142.16,-34.19
za,scottsburgh,-30.286656,30.753161,"(-90, -30]",1583986197,22.78,8.77,82,84,30.75,-30.29
nz,waverley,-39.766667,174.633333,"(-90, -30]",1583986198,18.89,0.89,0,67,174.63,-39.77
nz,himatangi,-40.4,175.316667,"(-90, -30]",1583986199,20.0,2.24,0,47,175.32,-40.4
uy,treinta y tres,-33.2333333,-54.3833333,"(-90, -30]",1583986201,20.92,8.27,100,89,-54.38,-33.23
br,tapes,-30.666666999999997,-51.383333,"(-90, -30]",1583986202,20.33,1.47,67,95,-51.38,-30.67
cl,victoria,-38.216667,-72.333333,"(-90, -30]",1583986203,12.74,0.98,39,77,-72.33,-38.22
nz,karamea,-41.25,172.116667,"(-90, -30]",1583986204,14.82,1.68,95,93,172.12,-41.25
br,quarai,-30.383333,-56.45,"(-90, -30]",1583986206,26.51,4.73,100,42,-56.45,-30.38
br,morro agudo,-20.733333,-48.066666999999995,"(-30, -20]",1583986207,24.0,2.1,0,73,-48.07,-20.73
br,santo antonio da platina,-23.2942,-50.075,"(-30, -20]",1583986208,19.53,4.87,0,86,-50.08,-23.29
py,santa rita,-25.783333,-55.066667,"(-30, -20]",1583986210,27.0,2.1,21,54,-55.07,-25.78
mu,mapou,-20.075833300000003,57.601388899999996,"(-30, -20]",1583986211,27.78,4.63,40,94,57.6,-20.08
br,londrina,-23.3,-51.15,"(-30, -20]",1583986212,26.0,2.1,0,57,-51.15,-23.3
mu,grand gaube,-20.0063889,57.6608333,"(-30, -20]",1583986214,27.78,4.63,40,94,57.66,-20.01
br,ibitinga,-21.75,-48.816666999999995,"(-30, -20]",1583986215,21.22,4.53,0,84,-48.82,-21.75
br,teresopolis,-22.424064,-42.968013,"(-30, -20]",1583986216,24.0,4.1,34,73,-42.97,-22.42
br,juiz de fora,-21.751667,-43.352778,"(-30, -20]",1583986218,18.2,0.43,90,97,-43.35,-21.75
re,saint-benoit,-21.033333300000002,55.716666700000005,"(-30, -20]",1583986219,27.0,7.7,28,83,55.72,-21.03
mu,the vale,-20.0283333,57.58777779999999,"(-30, -20]",1583986220,27.78,4.63,40,94,57.59,-20.03
py,sapucai,-25.666667,-56.916667000000004,"(-30, -20]",1583986222,25.63,2.31,31,51,-56.92,-25.67
br,duartina,-22.4,-49.416667,"(-30, -20]",1583986223,21.67,4.02,12,100,-49.42,-22.4
za,ekuvukeni,-28.467523,30.155126,"(-30, -20]",1583986224,15.63,0.82,61,97,30.16,-28.47
mu,camp de masque,-20.2369444,57.6633333,"(-30, -20]",1583986225,27.78,4.63,40,94,57.66,-20.24
br,casa branca,-21.766667,-47.083333,"(-30, -20]",1583986227,19.16,0.43,0,89,-47.08,-21.77
br,castro,-24.783333,-50.0,"(-30, -20]",1583986228,17.03,3.82,1,96,-50.0,-24.78
za,villiers,-27.030256,28.600611999999998,"(-30, -20]",1583986229,15.18,3.41,84,80,28.6,-27.03
br,pradopolis,-21.366667,-48.066666999999995,"(-30, -20]",1583986231,24.0,2.1,0,73,-48.07,-21.37
mg,ikalamavony,-21.15,46.5833333,"(-30, -20]",1583986232,18.24,2.25,0,86,46.58,-21.15
za,vereeniging,-26.673133,27.926146999999997,"(-30, -20]",1583986233,18.33,2.82,0,82,27.93,-26.67
br,telemaco borba,-24.35,-50.616667,"(-30, -20]",1583986235,16.83,1.06,32,96,-50.62,-24.35
zw,beitbridge,-22.216666699999998,30.0,"(-30, -20]",1583986236,22.93,4.91,58,64,30.0,-22.22
br,caconde,-21.55,-46.633333,"(-30, -20]",1583986237,16.58,2.0,5,96,-46.63,-21.55
br,braganca paulista,-22.95,-46.566666999999995,"(-30, -20]",1583986238,21.0,2.1,40,94,-46.57,-22.95
br,carlos barbosa,-29.3,-51.5,"(-30, -20]",1583986240,23.33,2.24,100,81,-51.5,-29.3
br,pitanga,-24.766667,-51.733333,"(-30, -20]",1583986241,16.47,1.37,60,69,-51.73,-24.77
br,candido de abreu,-24.583333,-51.333333,"(-30, -20]",1583986242,18.74,1.2,14,88,-51.33,-24.58
br,rio claro,-22.716667,-44.15,"(-30, -20]",1583986244,16.24,0.28,5,97,-44.15,-22.72
br,palotina,-24.283333,-53.833332999999996,"(-30, -20]",1583986245,22.98,2.42,62,77,-53.83,-24.28
au,morayfield,-27.108760999999998,152.949066,"(-30, -20]",1583986246,22.78,6.2,75,88,152.95,-27.11
br,porto murtinho,-21.7,-57.86666700000001,"(-30, -20]",1583986247,25.9,2.8,0,46,-57.87,-21.7
za,kuruman,-27.452402000000003,23.432456,"(-30, -20]",1583986249,17.95,5.6,39,65,23.43,-27.45
au,bongaree,-27.08367,153.159424,"(-30, -20]",1583986250,22.78,6.2,75,88,153.16,-27.08
br,santo antonio de posse,-22.6,-46.916667,"(-30, -20]",1583986251,21.0,7.2,0,77,-46.92,-22.6
br,curitibanos,-27.3,-50.6,"(-30, -20]",1583986253,16.49,3.01,1,95,-50.6,-27.3
br,franco da rocha,-23.324821,-46.718475,"(-30, -20]",1583986254,21.11,2.1,40,94,-46.72,-23.32
au,caboolture,-27.08465,152.951096,"(-30, -20]",1583985859,23.33,6.2,75,88,152.95,-27.08
br,chapeco,-27.083333000000003,-52.983332999999995,"(-30, -20]",1583986256,19.96,1.33,0,65,-52.98,-27.08
bo,villazon,-22.1,-65.6,"(-30, -20]",1583986258,10.33,7.02,76,72,-65.6,-22.1
bw,nkoyaphiri,-24.632222199999998,25.8313889,"(-30, -20]",1583986259,20.13,2.19,32,45,25.83,-24.63
br,wenceslau braz,-23.85,-49.8,"(-30, -20]",1583986260,19.44,1.34,0,99,-49.8,-23.85
au,moree,-29.46278,149.841568,"(-30, -20]",1583986262,27.0,4.1,0,39,149.84,-29.46
br,cambe,-23.233333,-51.25,"(-30, -20]",1583986263,26.0,2.1,1,57,-51.25,-23.23
br,pinheiral,-22.516667,-43.983333,"(-30, -20]",1583986264,16.24,0.28,5,97,-43.98,-22.52
za,ermelo,-26.533333000000002,29.983333000000002,"(-30, -20]",1583986266,14.73,2.09,77,94,29.98,-26.53
br,sao jose do calcado,-21.033333,-41.666667,"(-30, -20]",1583986267,16.97,0.19,27,96,-41.67,-21.03
br,peabiru,-23.9,-52.333333,"(-30, -20]",1583986268,20.26,2.55,10,91,-52.33,-23.9
py,trinidad,-27.116667,-55.783333,"(-30, -20]",1583986269,27.0,2.1,92,57,-55.78,-27.12
br,cabo frio,-22.883333,-42.016667,"(-30, -20]",1583986271,24.46,4.95,0,73,-42.02,-22.88
gb,bathgate,55.9,-3.6333330000000004,"(50, 60]",1583986272,1.67,8.2,40,78,-3.63,55.9
nl,vaals,50.769835,5.994864,"(50, 60]",1583986273,13.0,10.8,75,76,5.99,50.77
ru,yaransk,57.303313,47.886113,"(50, 60]",1583986275,2.86,7.16,100,95,47.89,57.3
de,lohne,52.183333000000005,8.666667,"(50, 60]",1583986276,13.0,12.9,20,81,8.67,52.18
ru,sukhobuzimskoye,56.5,93.272778,"(50, 60]",1583986277,-3.0,8.0,40,73,93.27,56.5
ru,saint petersburg,59.89444399999999,30.264166999999997,"(50, 60]",1583986051,3.0,4.0,90,86,30.26,59.89
ca,elk point,53.9,-110.9,"(50, 60]",1583986280,-2.0,4.6,40,50,-110.9,53.9
dk,assentoft,56.442094999999995,10.151695,"(50, 60]",1583986281,8.0,4.1,92,93,10.15,56.44
be,bullingen,50.416667,6.266667,"(50, 60]",1583986282,13.0,10.8,75,76,6.27,50.42
de,waltershausen,50.9,10.566667,"(50, 60]",1583986284,12.22,7.2,75,71,10.57,50.9
ru,roshal,55.668533999999994,39.874879,"(50, 60]",1583986285,5.17,4.18,100,89,39.87,55.67
be,zonnebeke,50.866667,2.983333,"(50, 60]",1583986286,10.56,10.3,58,71,2.98,50.87
ru,sosnovskoye,55.805492,43.167909,"(50, 60]",1583986288,7.0,4.0,90,93,43.17,55.81
de,rodental,50.283333,11.066667,"(50, 60]",1583986289,11.67,0.89,100,70,11.07,50.28
gb,ruthin,53.11666700000001,-3.3,"(50, 60]",1583986290,5.56,11.3,20,77,-3.3,53.12
dk,tune,55.595282999999995,12.183192,"(50, 60]",1583986291,8.33,6.2,23,100,12.18,55.6
be,gistel,51.166667,2.95,"(50, 60]",1583986293,10.56,13.9,20,81,2.95,51.17
pl,lowicz,52.113739,19.948742000000003,"(50, 60]",1583986294,7.22,1.5,40,93,19.95,52.11
gb,muir of ord,57.516667000000005,-4.45,"(50, 60]",1583986295,2.0,5.7,37,86,-4.45,57.52
ee,kehra,59.336111100000004,25.3211111,"(50, 60]",1583986297,4.44,7.2,75,86,25.32,59.34
ru,kabakovo,54.5218,56.0845,"(50, 60]",1583986298,4.0,10.0,98,55,56.08,54.52
de,greven,52.1,7.616667,"(50, 60]",1583986299,12.78,10.8,75,87,7.62,52.1
ru,syrskoye,52.574365,39.4966,"(50, 60]",1583986301,6.0,7.0,75,93,39.5,52.57
be,borsbeek,51.2,4.483333,"(50, 60]",1583986302,11.11,8.2,100,76,4.48,51.2
gb,brodick,55.583332999999996,-5.1666669999999995,"(50, 60]",1583986303,4.0,5.1,79,66,-5.17,55.58
ua,andrushivka,50.022878000000006,29.020226,"(50, 60]",1583986305,4.05,5.04,0,81,29.02,50.02
ru,verkhne-katunskoye,52.44944399999999,85.431667,"(50, 60]",1583986306,-9.21,1.45,99,89,85.43,52.45
gb,stafford,52.833332999999996,-2.0,"(50, 60]",1583986307,4.44,9.8,49,69,-2.0,52.83
ie,ballinasloe,53.3275,-8.2194444,"(50, 60]",1583986308,1.42,5.2,60,87,-8.22,53.33
ua,mala danylivka,50.063542,36.165641,"(50, 60]",1583986310,6.0,15.0,75,81,36.17,50.06
ru,sosnovka,53.235925,41.368593,"(50, 60]",1583986311,6.14,5.48,100,87,41.37,53.24
ru,spas-demensk,54.412222,34.022568,"(50, 60]",1583986312,2.66,5.69,74,84,34.02,54.41
ru,yelovo,57.053810999999996,54.920704,"(50, 60]",1583986314,-0.68,7.17,38,83,54.92,57.05
gb,gloucester,51.833333,-2.166667,"(50, 60]",1583986315,5.56,5.1,27,65,-2.17,51.83
ru,cheremisinovo,51.8855,37.2646,"(50, 60]",1583986316,6.0,6.0,90,87,37.26,51.89
gb,gorebridge,55.833332999999996,-3.05,"(50, 60]",1583986318,1.67,8.2,40,69,-3.05,55.83
be,seraing,50.6,5.483333,"(50, 60]",1583986319,13.0,10.8,75,76,5.48,50.6
ru,rovnoye,50.776503999999996,46.050855,"(50, 60]",1583986320,7.18,5.96,100,85,46.05,50.78
ru,chernyanka,50.940946999999994,37.806934000000005,"(50, 60]",1583986321,5.76,4.44,44,89,37.81,50.94
pl,grodzisk mazowiecki,52.106384000000006,20.623141,"(50, 60]",1583986323,6.67,2.1,40,93,20.62,52.11
dk,ullerslev,55.361722,10.651905000000001,"(50, 60]",1583986324,6.85,8.71,28,89,10.65,55.36
ru,stroitel,50.785427,36.483098999999996,"(50, 60]",1583986297,6.0,5.0,75,93,36.48,50.79
ru,krasnoyarsk-45,56.1124,94.5985,"(50, 60]",1583986327,-4.09,9.3,100,88,94.6,56.11
dk,svejbaek,56.132548,9.632894,"(50, 60]",1583986328,8.0,8.2,78,93,9.63,56.13
be,braives,50.633333,5.15,"(50, 60]",1583986329,12.22,10.8,75,76,5.15,50.63
ru,tarusa,54.724357,37.172719,"(50, 60]",1583986331,4.0,6.0,90,80,37.17,54.72
nl,deventer,52.25,6.2,"(50, 60]",1583986332,11.11,8.2,90,81,6.2,52.25
ru,odesskoye,54.2111,72.9651,"(50, 60]",1583986333,-0.7,4.45,98,92,72.97,54.21
gb,townhill,56.083332999999996,-3.433333,"(50, 60]",1583986334,1.67,8.2,40,78,-3.43,56.08
ru,sarana,56.47728000000001,57.725865,"(50, 60]",1583986336,1.66,5.62,100,67,57.73,56.48
co,san mateo,6.4011059999999995,-72.55562900000001,"(0, 10]",1583986337,10.67,0.34,100,97,-72.56,6.4
ph,batasan,7.033333,125.05,"(0, 10]",1583986338,32.0,5.7,40,52,125.05,7.03
co,roncesvalles,4.010796,-75.60493000000001,"(0, 10]",1583986340,22.0,1.5,40,83,-75.6,4.01
cf,bossembele,5.2666667,17.65,"(0, 10]",1583986341,22.81,1.78,57,48,17.65,5.27
ph,initao,8.499722,124.30388899999998,"(0, 10]",1583986342,28.33,4.02,95,71,124.3,8.5
cr,chacarita,9.982886,-84.772319,"(0, 10]",1583986344,23.0,8.2,0,53,-84.77,9.98
ph,san isidro,6.462778,124.86083300000001,"(0, 10]",1583986345,33.0,7.2,20,41,124.86,6.46
co,mitu,1.198333,-70.173333,"(0, 10]",1583986346,25.91,0.16,97,76,-70.17,1.2
cf,dekoa,6.3166667,19.0666667,"(0, 10]",1583986347,21.73,1.47,100,21,19.07,6.32
ph,tamayong,7.133056,125.379722,"(0, 10]",1583986349,32.0,5.7,40,52,125.38,7.13
ph,kalian,7.5916,123.2319,"(0, 10]",1583986350,29.67,0.85,64,61,123.23,7.59
co,san benito abad,8.929007,-75.02709,"(0, 10]",1583986351,25.99,3.28,0,77,-75.03,8.93
ng,onitsha,6.14543,6.788452,"(0, 10]",1583986353,25.42,3.01,98,90,6.79,6.15
ph,pan-ay,8.219167,123.840278,"(0, 10]",1583986354,27.32,2.75,70,65,123.84,8.22
ph,alicia,9.8949,124.4422,"(0, 10]",1583986355,31.0,3.6,75,55,124.44,9.89
ph,sagbayan,9.9144,124.0919,"(0, 10]",1583986357,31.0,3.6,75,55,124.09,9.91
lk,kelaniya,6.96,79.8977778,"(0, 10]",1583986358,30.0,4.1,20,74,79.9,6.96
co,jenesano,5.385406,-73.363644,"(0, 10]",1583986359,12.36,0.81,100,93,-73.36,5.39
ph,tambak,6.726389,124.62638899999999,"(0, 10]",1583986361,26.51,3.07,6,65,124.63,6.73
co,genova,4.316667,-75.766667,"(0, 10]",1583986362,22.0,2.1,40,88,-75.77,4.32
cd,binga,2.3833330000000004,20.5,"(0, 10]",1583986363,21.8,1.28,98,98,20.5,2.38
cm,mfou,3.9666667,11.933333300000001,"(0, 10]",1583986364,23.0,1.5,75,94,11.93,3.97
gf,saint-georges,3.9,-51.8,"(0, 10]",1583986366,21.41,1.3,0,92,-51.8,3.9
ph,sangali,7.067794999999999,122.20231000000001,"(0, 10]",1583986367,31.0,4.6,40,66,122.2,7.07
co,nimaima,5.126143,-74.384945,"(0, 10]",1583986368,14.0,1.5,75,87,-74.38,5.13
co,mistrato,5.297301999999999,-75.883217,"(0, 10]",1583986370,22.0,2.1,40,88,-75.88,5.3
co,lenguazaque,5.307108,-73.711525,"(0, 10]",1583986371,12.36,0.81,100,93,-73.71,5.31
co,el playon,7.471313,-73.20310400000001,"(0, 10]",1583986372,20.0,1.5,40,100,-73.2,7.47
ph,santo tomas,8.185833,125.80388899999998,"(0, 10]",1583986374,29.36,3.77,39,61,125.8,8.19
et,dembi dolo,8.533333,34.8,"(0, 10]",1583986375,17.74,1.0,41,84,34.8,8.53
cr,san pedro,9.928293,-84.050735,"(0, 10]",1583986376,23.0,8.2,33,53,-84.05,9.93
ph,maluko,8.375,124.95388899999999,"(0, 10]",1583986378,28.33,4.02,71,71,124.95,8.38
ug,koboko,3.4113888999999995,30.9866667,"(0, 10]",1583986379,20.93,1.73,79,74,30.99,3.41
ph,kagawasan,7.8657,123.3973,"(0, 10]",1583986326,31.36,1.57,100,57,123.4,7.87
pa,almirante,9.3,-82.4,"(0, 10]",1583986381,24.21,1.67,2,81,-82.4,9.3
pa,cermeno,8.733333300000002,-79.85,"(0, 10]",1583986383,26.0,3.1,20,78,-79.85,8.73
ph,daliao,5.861111,124.953333,"(0, 10]",1583986384,33.0,7.2,20,41,124.95,5.86
ph,tambo,9.895,123.0556,"(0, 10]",1583986385,30.0,5.1,40,58,123.06,9.9
co,vijes,3.699335,-76.44230400000001,"(0, 10]",1583986387,24.0,3.1,75,73,-76.44,3.7
ph,gigaquit,9.5951,125.6968,"(0, 10]",1583986388,28.68,3.94,75,62,125.7,9.6
co,cerrito,6.843147,-72.694041,"(0, 10]",1583986389,20.0,1.5,40,100,-72.69,6.84
ng,yenagoa,4.924722,6.264167,"(0, 10]",1583986391,25.85,1.84,100,93,6.26,4.92
gh,bechem,7.0833333,-2.0333333,"(0, 10]",1583986392,22.5,0.93,59,98,-2.03,7.08
ph,malitubog,7.315556,124.638056,"(0, 10]",1583986393,29.86,3.78,40,33,124.64,7.32
co,tipacoque,6.42031,-72.69184200000001,"(0, 10]",1583986395,10.67,0.34,100,97,-72.69,6.42
ph,anuling,6.035556,121.006667,"(0, 10]",1583986396,30.02,0.14,87,64,121.01,6.04
et,dilla,6.4166669999999995,38.316666999999995,"(0, 10]",1583986397,12.6,2.07,100,94,38.32,6.42
ph,laminusa,5.5549,120.9136,"(0, 10]",1583986399,28.18,1.09,72,73,120.91,5.55
ec,cayambe,0.05,-78.1333333,"(0, 10]",1583986400,15.0,2.1,75,87,-78.13,0.05
pw,airai,7.3575,134.55777780000003,"(0, 10]",1583986401,29.0,5.1,75,74,134.56,7.36
no,tolga,62.416667000000004,11.0,"(60, 90]",1583986403,-2.0,3.1,100,68,11.0,62.42
ru,medvezhyegorsk,62.917131000000005,34.456886,"(60, 90]",1583986404,0.81,2.55,100,98,34.46,62.92
ru,lisiy nos,60.016856000000004,30.020082000000002,"(60, 90]",1583986405,3.0,4.0,90,86,30.02,60.02
no,ytre arna,60.466667,5.433333,"(60, 90]",1583986391,4.44,9.8,40,86,5.43,60.47
fi,seinajoki,62.8,22.833333,"(60, 90]",1583986408,1.11,1.0,75,98,22.83,62.8
se,harnosand,62.636111,17.941111,"(60, 90]",1583986409,-0.56,1.5,90,100,17.94,62.64
fi,rovaniemi,66.5,25.716667,"(60, 90]",1583986411,-1.0,2.1,90,100,25.72,66.5
ru,tazovskiy,67.466667,78.7,"(60, 90]",1583986412,-23.14,2.43,3,94,78.7,67.47
ru,udimskiy,61.141707999999994,45.914425,"(60, 90]",1583986413,1.47,3.85,100,98,45.91,61.14
no,stryn,61.916667000000004,6.783333,"(60, 90]",1583986414,1.11,5.81,87,90,6.78,61.92
ru,muravlenko,63.783333,73.5,"(60, 90]",1583986416,0.05,4.94,100,98,73.5,63.78
ru,poykovskiy,61.233332999999995,73.333333,"(60, 90]",1583986417,0.0,6.0,75,99,73.33,61.23
ru,labytnangi,66.65722199999999,66.41833299999999,"(60, 90]",1583986418,-11.08,6.26,100,94,66.42,66.66
ru,segezha,63.45,34.15,"(60, 90]",1583986420,0.21,2.27,100,99,34.15,63.45
us,soldotna,60.487777799999996,-151.05833330000002,"(60, 90]",1583986400,-7.0,3.1,1,57,-151.06,60.49
no,glomfjord,66.8,13.933333,"(60, 90]",1583986423,1.67,2.6,90,87,13.93,66.8
no,terrak,65.083333,12.416667,"(60, 90]",1583986424,4.0,6.7,100,80,12.42,65.08
ru,kola,68.88062099999999,33.018421999999994,"(60, 90]",1583986425,-6.0,2.0,100,85,33.02,68.88
no,bronnoysund,65.466667,12.216667,"(60, 90]",1583986427,4.0,6.7,100,80,12.22,65.47
ru,tumannyy,68.884722,35.694444,"(60, 90]",1583986428,-8.53,3.56,100,89,35.69,68.88
no,honningsvag,70.983333,25.983333,"(60, 90]",1583986429,-1.22,4.31,100,76,25.98,70.98
no,koppang,61.566667,11.066667,"(60, 90]",1583986431,-6.87,2.36,0,81,11.07,61.57
no,oystese,60.38333299999999,6.216667,"(60, 90]",1583986432,4.44,9.8,40,97,6.22,60.38
ru,beloostrov,60.151185,30.001510999999997,"(60, 90]",1583986433,3.0,4.0,90,86,30.0,60.15
no,sande,61.333332999999996,5.8,"(60, 90]",1583986435,4.0,7.7,100,86,5.8,61.33
no,lindeberg,60.033333,11.133333,"(60, 90]",1583986436,1.67,4.6,20,84,11.13,60.03
ru,srednekolymsk,67.45,153.683333,"(60, 90]",1583986326,-25.2,6.76,100,93,153.68,67.45
ru,beringovskiy,63.05,179.316667,"(60, 90]",1583986439,-3.21,9.69,100,95,179.32,63.05
no,frekhaug,60.517222,5.246111,"(60, 90]",1583986440,4.44,9.8,40,86,5.25,60.52
ru,nefteyugansk,61.083332999999996,72.7,"(60, 90]",1583986441,0.0,6.0,75,100,72.7,61.08
ru,turukhansk,65.81666700000001,87.983333,"(60, 90]",1583986443,-13.9,5.34,100,92,87.98,65.82
fi,nivala,63.916667000000004,24.966667,"(60, 90]",1583986444,0.0,1.02,100,96,24.97,63.92
ru,velsk,61.07005699999999,42.0983,"(60, 90]",1583986445,1.92,2.38,100,98,42.1,61.07
ru,kotlas,61.257452,46.649634000000006,"(60, 90]",1583986446,1.86,3.61,100,98,46.65,61.26
ru,blagoyevo,63.36666700000001,47.916667,"(60, 90]",1583986448,0.97,1.81,100,100,47.92,63.37
ru,kondopoga,62.205654,34.261382,"(60, 90]",1583986449,1.0,1.0,100,100,34.26,62.21
ru,belushya guba,71.539238,52.332117,"(60, 90]",1583986450,-12.36,9.54,97,91,52.33,71.54
is,olafsvik,64.883333,-23.716667,"(60, 90]",1583986452,-2.72,11.17,100,78,-23.72,64.88
ru,vysotsk,60.628793,28.570476,"(60, 90]",1583986453,1.0,5.7,90,98,28.57,60.63
no,hovin,63.11666700000001,10.25,"(60, 90]",1583986454,2.22,3.1,80,72,10.25,63.12
ru,pryazha,61.692584,33.621586,"(60, 90]",1583986456,1.0,1.0,100,100,33.62,61.69
no,tretten,61.316667,10.316667,"(60, 90]",1583986457,-9.77,3.53,13,83,10.32,61.32
ru,zapolyarnyy,67.483333,63.75,"(60, 90]",1583986458,-7.15,4.18,100,95,63.75,67.48
gl,paamiut,62.0,-49.75,"(60, 90]",1583986460,-8.22,1.52,100,88,-49.75,62.0
no,odda,60.066667,6.55,"(60, 90]",1583986461,4.44,1.34,99,82,6.55,60.07
no,sistranda,63.716667,8.833333,"(60, 90]",1583986462,3.33,3.6,75,70,8.83,63.72
no,ikornnes,62.38333299999999,6.566667,"(60, 90]",1583986463,3.0,7.7,90,100,6.57,62.38
ru,zelenoborsk,61.46694399999999,64.033333,"(60, 90]",1583986465,0.6,4.6,100,92,64.03,61.47
ru,ust-tsilma,65.441037,52.149783,"(60, 90]",1583986466,0.42,3.22,100,97,52.15,65.44
fi,kempele,64.916667,25.5,"(60, 90]",1583986467,0.56,2.1,90,97,25.5,64.92
