Country,City,Latitude,Longitude,Belt,Date,Max Temp,Wind Speed,Cloudiness,Humidity,Lon,Lat
cz,stramberk,49.590958,18.117846,"(40, 50]",1584020529,17.0,8.2,93,45,18.12,49.59
us,northbrook,42.1275,-87.82888890000001,"(40, 50]",1584020531,5.0,4.1,1,86,-87.83,42.13
fr,manosque,43.832871000000004,5.7839480000000005,"(40, 50]",1584020532,22.0,2.1,100,68,5.78,43.83
ca,georgetown,43.65,-79.93333299999999,"(40, 50]",1584020533,2.22,5.7,75,80,-79.93,43.65
hu,pecs,46.075363,18.232845,"(40, 50]",1584020534,20.0,3.6,85,37,18.23,46.08
ch,herisau,47.386276,9.280778999999999,"(40, 50]",1584020536,15.56,1.0,75,76,9.28,47.39
at,grodig,47.733333,13.033333,"(40, 50]",1584020537,19.0,4.6,20,45,13.03,47.73
us,piqua,40.144722200000004,-84.2425,"(40, 50]",1584020538,8.33,4.1,90,100,-84.24,40.14
ua,khorostkiv,49.211141,25.921648,"(40, 50]",1584020540,15.04,6.14,57,56,25.92,49.21
ru,poronaysk,49.216667,143.116667,"(40, 50]",1584020541,-8.12,3.41,6,87,143.12,49.22
rs,josanicka banja,43.389167,20.752222,"(40, 50]",1584020542,23.0,4.6,0,35,20.75,43.39
us,detroit,42.33138889999999,-83.0458333,"(40, 50]",1584020439,5.0,2.1,90,93,-83.05,42.33
de,beckingen,49.4,6.7,"(40, 50]",1584020545,11.67,9.3,75,81,6.7,49.4
es,alcobendas,40.543933,-3.6356879999999996,"(40, 50]",1584020546,24.44,1.0,100,40,-3.64,40.54
ro,tatarastii de sus,44.416667,25.116667,"(40, 50]",1584020547,17.78,2.92,0,56,25.12,44.42
ro,buces,46.183333000000005,22.933332999999998,"(40, 50]",1584020549,16.72,0.73,0,56,22.93,46.18
gr,patris,40.561111100000005,22.1861111,"(40, 50]",1584020550,20.56,1.5,20,42,22.19,40.56
ua,berezhany,49.442315,24.932315,"(40, 50]",1584020551,18.0,10.0,55,39,24.93,49.44
us,tenafly,40.925277799999996,-73.9633333,"(40, 50]",1584020553,8.0,2.6,75,75,-73.96,40.93
tr,yenisehir,40.264444,29.653056,"(40, 50]",1584020554,19.0,4.6,0,45,29.65,40.26
it,albino,45.766667,9.783333,"(40, 50]",1584020555,15.56,4.6,75,71,9.78,45.77
it,vercelli,45.316666999999995,8.416667,"(40, 50]",1584020556,16.67,1.0,75,82,8.42,45.32
it,morbegno,46.133333,9.566667,"(40, 50]",1584020558,15.0,7.2,79,46,9.57,46.13
ba,doboj,44.7347222,18.0877778,"(40, 50]",1584020559,25.0,2.1,35,27,18.09,44.73
ch,oberriet,47.319883000000004,9.566079,"(40, 50]",1584020560,15.56,1.0,75,76,9.57,47.32
it,ronchi dei legionari,45.823611,13.509722,"(40, 50]",1584020562,17.78,3.1,98,59,13.51,45.82
it,terlizzi,41.133333,16.533333,"(40, 50]",1584020563,24.44,5.7,0,63,16.53,41.13
ca,penticton,49.5,-119.58333300000001,"(40, 50]",1584020564,-1.0,1.02,40,86,-119.58,49.5
hu,ujhartyan,47.219808,19.386378,"(40, 50]",1584020566,22.22,6.2,0,42,19.39,47.22
us,commack,40.8427778,-73.2933333,"(40, 50]",1584020567,8.0,3.6,90,81,-73.29,40.84
ru,nalchik,43.498056,43.618889,"(40, 50]",1584020568,19.0,2.0,67,32,43.62,43.5
pt,vila frescainha,41.52779,-8.646102,"(40, 50]",1584020570,21.11,6.2,98,72,-8.65,41.53
us,oil city,41.4338889,-79.7066667,"(40, 50]",1584020571,6.67,2.1,90,93,-79.71,41.43
ro,dragesti,46.883333,22.133333,"(40, 50]",1584020572,20.0,8.7,0,49,22.13,46.88
ro,plosca,44.033333,25.133333,"(40, 50]",1584020574,18.17,1.89,0,51,25.13,44.03
ru,achikulak,44.551667,44.837778,"(40, 50]",1584020575,16.58,2.78,100,49,44.84,44.55
cz,senov,49.790917,18.375857999999997,"(40, 50]",1584020576,17.0,8.2,97,45,18.38,49.79
es,fene,43.45,-8.15,"(40, 50]",1584020577,13.33,4.6,75,87,-8.15,43.45
ca,saint-alexandre,47.683333000000005,-69.633333,"(40, 50]",1584020579,-5.65,0.95,55,90,-69.63,47.68
de,brackenheim,49.079722,9.065,"(40, 50]",1584020580,15.56,7.7,40,58,9.07,49.08
ro,magherani,46.566666999999995,24.9,"(40, 50]",1584020581,20.0,3.1,75,42,24.9,46.57
it,massa marittima,43.05,10.883333,"(40, 50]",1584020583,16.0,3.6,75,77,10.88,43.05
ua,kosiv,48.310708,25.095751999999997,"(40, 50]",1584020584,14.43,3.16,96,58,25.1,48.31
at,marchtrenk,48.183333000000005,14.116667000000001,"(40, 50]",1584020585,19.0,9.3,40,52,14.12,48.18
ch,trimbach,47.365605,7.8867970000000005,"(40, 50]",1584020586,18.0,5.1,75,67,7.89,47.37
lu,tetange,49.4758333,6.0422222,"(40, 50]",1584020588,11.67,6.7,75,70,6.04,49.48
us,pullman,46.7313889,-117.1786111,"(40, 50]",1584020359,0.0,0.34,40,73,-117.18,46.73
ro,biled,45.886389,20.958889000000003,"(40, 50]",1584020590,22.22,6.7,0,40,20.96,45.89
us,la grange,41.805,-87.86916670000001,"(40, 50]",1584020339,5.0,4.6,1,100,-87.87,41.81
es,ripoll,42.20033,2.190467,"(40, 50]",1584020593,24.44,3.1,100,64,2.19,42.2
us,key biscayne,25.693333300000003,-80.16305559999999,"(20, 30]",1584020594,22.78,5.1,75,73,-80.16,25.69
in,kiraoli,27.15,77.783333,"(20, 30]",1584020596,23.18,1.94,10,26,77.78,27.15
in,falakata,26.520840999999997,89.205448,"(20, 30]",1584020597,26.64,1.09,17,37,89.21,26.52
np,rajbiraj,26.5333333,86.75,"(20, 30]",1584020598,26.46,2.11,0,37,86.75,26.53
in,chhatapur,26.216666999999998,87.016667,"(20, 30]",1584020599,27.64,2.62,0,36,87.02,26.22
in,guwahati,26.183332999999998,91.733333,"(20, 30]",1584020601,27.0,1.93,40,57,91.73,26.18
in,paliyad,22.25,71.56666700000001,"(20, 30]",1584020602,21.97,5.98,0,15,71.57,22.25
mx,san jose temascatio,20.683332999999998,-101.266667,"(20, 30]",1584020603,13.33,0.55,40,62,-101.27,20.68
us,dania beach,26.0519444,-80.1441667,"(20, 30]",1584020605,23.33,3.97,90,83,-80.14,26.05
in,akaltara,22.016667,82.43333299999999,"(20, 30]",1584020606,26.94,4.21,6,61,82.43,22.02
pk,garhi yasin,27.906895000000002,68.510961,"(20, 30]",1584020607,27.0,2.17,40,28,68.51,27.91
in,sanchi,23.483333,77.733333,"(20, 30]",1584020609,27.0,8.2,40,42,77.73,23.48
in,utran,21.233333,72.866667,"(20, 30]",1584020610,24.0,2.6,0,47,72.87,21.23
pk,hingorja,27.210882,68.415977,"(20, 30]",1584020611,27.0,4.0,40,28,68.42,27.21
mx,ecuandureo,20.166667,-102.18333299999999,"(20, 30]",1584020613,21.6,0.87,57,51,-102.18,20.17
us,lake magdalene,28.073888899999996,-82.4719444,"(20, 30]",1584020614,20.56,1.15,1,88,-82.47,28.07
in,kaman,27.65,77.266667,"(20, 30]",1584020510,23.51,3.48,62,28,77.27,27.65
mx,fernandez,21.95,-100.0,"(20, 30]",1584020617,19.98,0.55,78,71,-100.0,21.95
pk,shahdadkot,27.847709000000002,67.905497,"(20, 30]",1584020618,18.73,1.91,20,26,67.91,27.85
mx,progreso,20.25,-99.2,"(20, 30]",1584020619,17.67,1.44,8,43,-99.2,20.25
in,churachandpur,24.333333,93.666667,"(20, 30]",1584020620,18.18,0.53,0,55,93.67,24.33
cu,madruga,22.9113889,-81.85611109999999,"(20, 30]",1584020622,23.0,1.5,20,83,-81.86,22.91
cu,alacranes,22.7675,-81.5675,"(20, 30]",1584020623,18.0,1.0,20,100,-81.57,22.77
cu,calabazar de sagua,22.644722199999997,-79.89611109999998,"(20, 30]",1584020625,21.0,2.1,40,94,-79.9,22.64
in,maihar,24.266667,80.75,"(20, 30]",1584020626,27.39,1.67,18,31,80.75,24.27
us,lutz,28.1508333,-82.4616667,"(20, 30]",1584020618,20.56,1.15,1,88,-82.46,28.15
in,farakka,24.816667000000002,87.9,"(20, 30]",1584020628,27.55,0.86,0,36,87.9,24.82
in,rajsamand,25.066667000000002,73.883333,"(20, 30]",1584020630,25.0,4.1,0,27,73.88,25.07
in,maghar,26.757222,83.127778,"(20, 30]",1584020631,25.23,2.26,0,39,83.13,26.76
in,bedi,22.5,70.05,"(20, 30]",1584020632,22.56,8.29,0,58,70.05,22.5
mx,ures,29.433333,-110.4,"(20, 30]",1584020634,18.89,0.45,100,96,-110.4,29.43
in,mandla,22.6,80.383333,"(20, 30]",1584020635,23.81,2.41,44,60,80.38,22.6
in,faridabad,28.433333,77.31666700000001,"(20, 30]",1584020636,24.0,3.1,40,41,77.32,28.43
mx,san buenaventura,29.85,-107.483333,"(20, 30]",1584020638,15.09,2.63,100,66,-107.48,29.85
in,kota,24.45,83.133333,"(20, 30]",1584020639,27.32,2.32,28,44,83.13,24.45
in,rahatgarh,23.783333,78.366667,"(20, 30]",1584020640,24.91,2.65,4,31,78.37,23.78
in,khetia,21.666667,74.583333,"(20, 30]",1584020610,22.6,6.92,0,16,74.58,21.67
in,supaul,26.116667,86.6,"(20, 30]",1584020475,26.72,3.37,0,34,86.6,26.12
tw,tucheng,24.9833333,121.43333329999999,"(20, 30]",1584020644,21.11,2.6,75,83,121.43,24.98
mx,jalpan,21.233333,-99.483333,"(20, 30]",1584020645,21.57,0.26,21,53,-99.48,21.23
tw,ilan,24.7666667,121.75,"(20, 30]",1584020647,21.11,2.6,75,83,121.75,24.77
pk,adilpur,27.936974,69.318685,"(20, 30]",1584020648,27.0,1.6,40,28,69.32,27.94
pk,tando jam,25.427178,68.536192,"(20, 30]",1584020649,21.68,5.58,0,13,68.54,25.43
mx,nueva rosita,27.95,-101.216667,"(20, 30]",1584020651,21.2,2.81,69,75,-101.22,27.95
cn,wuxue,29.850578000000002,115.552504,"(20, 30]",1584020652,11.85,1.46,100,93,115.55,29.85
sa,safwah,26.649862,49.952228000000005,"(20, 30]",1584020653,27.0,6.7,50,26,49.95,26.65
us,oakland park,26.171944399999997,-80.1322222,"(20, 30]",1584020655,23.33,3.97,90,88,-80.13,26.17
in,tajpur,29.166666999999997,78.483333,"(20, 30]",1584020656,22.73,2.93,96,49,78.48,29.17
mx,marin,25.866667,-100.05,"(20, 30]",1584020657,19.0,3.12,40,82,-100.05,25.87
in,shahabad,28.566667,79.016667,"(20, 30]",1584020659,22.44,2.34,42,50,79.02,28.57
jp,konosu,36.05,139.51666699999998,"(30, 40]",1584020660,13.33,2.1,20,66,139.52,36.05
us,mountain home,36.3352778,-92.385,"(30, 40]",1584020661,14.44,3.1,90,100,-92.39,36.34
tm,buzmeyin,38.0516667,58.21,"(30, 40]",1584020663,22.0,5.1,20,21,58.21,38.05
us,lewisville,36.0969444,-80.4194444,"(30, 40]",1584020598,14.44,2.6,1,82,-80.42,36.1
us,clinton,36.103333299999996,-84.1319444,"(30, 40]",1584020402,13.89,0.56,90,82,-84.13,36.1
gr,sikion,37.9833333,22.7333333,"(30, 40]",1584020666,19.44,2.24,0,32,22.73,37.98
pt,almargem do bispo,38.844851,-9.273155000000001,"(30, 40]",1584020668,22.78,5.7,20,68,-9.27,38.84
us,fernley,39.60805560000001,-119.25083329999998,"(30, 40]",1584020185,3.33,2.29,1,64,-119.25,39.61
dz,timizart,36.8,4.2666667,"(30, 40]",1584020670,17.39,5.54,100,62,4.27,36.8
us,imperial beach,32.5838889,-117.1122222,"(30, 40]",1584020519,17.0,1.44,90,93,-117.11,32.58
us,cornelius,35.4866667,-80.86027779999999,"(30, 40]",1584020413,15.56,1.77,1,87,-80.86,35.49
gr,sperkhoyia,37.0666667,22.0666667,"(30, 40]",1584020674,19.0,4.1,0,42,22.07,37.07
us,la habra,33.9319444,-117.9452778,"(30, 40]",1584020675,15.0,1.38,1,81,-117.95,33.93
gr,kamateron,38.0666667,23.7,"(30, 40]",1584020677,20.0,5.1,20,37,23.7,38.07
cn,jinsha,32.089817,121.073546,"(30, 40]",1584020678,13.33,0.86,100,87,121.07,32.09
il,bet dagan,32.001389,34.830278,"(30, 40]",1584020679,25.0,8.2,99,47,34.83,32.0
gr,kolimvari,35.55,23.783333300000002,"(30, 40]",1584020681,17.22,3.6,40,77,23.78,35.55
in,chhachhrauli,30.25,77.366667,"(30, 40]",1584020682,20.38,4.02,52,57,77.37,30.25
us,coral hills,38.8702778,-76.92138890000001,"(30, 40]",1584020683,10.56,1.5,75,66,-76.92,38.87
us,gallup,35.5280556,-108.74194440000001,"(30, 40]",1584020625,7.0,1.16,90,87,-108.74,35.53
ly,tukrah,32.533333299999995,20.5666667,"(30, 40]",1584020686,14.91,10.5,0,72,20.57,32.53
pk,mustafabad,30.776217,73.698165,"(30, 40]",1584020687,12.32,4.96,97,82,73.7,30.78
gr,aiantion,37.9166667,23.466666699999998,"(30, 40]",1584020688,20.0,5.1,20,37,23.47,37.92
us,diamond bar,34.028611100000006,-117.80944440000002,"(30, 40]",1584020690,15.0,1.38,1,81,-117.81,34.03
it,castelvetrano,37.683333000000005,12.783333,"(30, 40]",1584020691,20.56,2.1,0,63,12.78,37.68
jp,shiroishi,38.003333000000005,140.618333,"(30, 40]",1584020692,3.33,1.25,0,62,140.62,38.0
us,roanoke rapids,36.461388899999996,-77.6544444,"(30, 40]",1584020694,12.0,2.6,90,100,-77.65,36.46
gr,tzermiadon,35.2036111,25.484722199999997,"(30, 40]",1584020695,18.33,7.7,40,67,25.48,35.2
cn,yuanping,38.715278000000005,112.7575,"(30, 40]",1584020696,3.23,1.75,76,45,112.76,38.72
us,sugar hill,34.1063889,-84.03361109999999,"(30, 40]",1584020698,17.22,1.5,90,100,-84.03,34.11
jp,itami,34.766667,135.416667,"(30, 40]",1584020699,11.0,4.6,55,62,135.42,34.77
gr,antissa,39.2333333,25.9833333,"(30, 40]",1584020700,18.0,6.7,0,48,25.98,39.23
us,sheffield,34.765,-87.6986111,"(30, 40]",1584020702,18.33,1.5,20,93,-87.7,34.77
jp,kurihashi,36.133333,139.7,"(30, 40]",1584020703,13.33,2.1,20,66,139.7,36.13
mx,camalu,30.85,-116.066667,"(30, 40]",1584020704,14.89,1.93,75,94,-116.07,30.85
us,huntsville,30.7233333,-95.5505556,"(30, 40]",1584020130,21.0,4.6,90,77,-95.55,30.72
us,blacklick estates,39.905,-82.8644444,"(30, 40]",1584020707,9.0,2.6,90,81,-82.86,39.91
il,dimona,31.066667,35.033333,"(30, 40]",1584020561,18.37,6.08,100,78,35.03,31.07
us,parlier,36.6116667,-119.52611110000001,"(30, 40]",1584020709,9.0,2.1,0,100,-119.53,36.61
us,marietta,33.9525,-84.55,"(30, 40]",1584020708,17.22,1.5,90,100,-84.55,33.95
us,maywood,33.9866667,-118.18444440000002,"(30, 40]",1584020712,15.0,1.38,1,81,-118.18,33.99
il,kefar yona,32.316691999999996,34.935072999999996,"(30, 40]",1584020713,26.0,8.2,100,47,34.94,32.32
ir,azar shahr,37.759,45.9783,"(30, 40]",1584020715,19.0,5.1,33,23,45.98,37.76
gr,kontokalion,39.6452778,19.8494444,"(30, 40]",1584020716,21.0,1.5,0,46,19.85,39.65
cn,ezhou,30.396071999999997,114.886546,"(30, 40]",1584020717,12.68,2.48,65,88,114.89,30.4
gr,mitilini,39.11,26.5547222,"(30, 40]",1584020719,20.0,6.7,0,48,26.55,39.11
it,cagliari,39.216667,9.116667,"(30, 40]",1584020720,20.0,3.6,60,72,9.12,39.22
us,west puente valley,34.0516667,-117.9675,"(30, 40]",1584020721,15.0,1.38,1,81,-117.97,34.05
us,hampton,37.0297222,-76.3455556,"(30, 40]",1584020723,15.0,3.1,1,82,-76.35,37.03
es,zafra,38.416667,-6.4166669999999995,"(30, 40]",1584020724,25.56,2.6,96,36,-6.42,38.42
in,allapalli,19.416667,80.06666700000001,"(10, 20]",1584020725,28.33,1.33,17,45,80.07,19.42
ph,bunga,10.7731,124.7847,"(10, 20]",1584020727,25.53,4.44,1,83,124.78,10.77
in,athni,16.733333,75.06666700000001,"(10, 20]",1584020728,25.27,6.54,35,51,75.07,16.73
ph,santa brigida,12.567832000000001,121.48901399999998,"(10, 20]",1584020729,26.3,4.19,11,73,121.49,12.57
in,narasingapuram,13.616667000000001,79.333333,"(10, 20]",1584020731,33.0,3.1,22,38,79.33,13.62
co,baranoa,10.794084,-74.9164,"(10, 20]",1584020732,26.0,2.1,0,88,-74.92,10.79
in,bhor,18.166667,73.85,"(10, 20]",1584020733,20.05,3.6,0,68,73.85,18.17
ph,guindapunan,11.302778,124.70583300000001,"(10, 20]",1584020735,23.12,3.45,19,89,124.71,11.3
mx,el limon,19.816667000000002,-104.18333299999999,"(10, 20]",1584020736,22.83,0.18,100,46,-104.18,19.82
ph,tanay,14.4968,121.2846,"(10, 20]",1584020737,29.0,2.6,20,66,121.28,14.5
mx,jiutepec,18.866667,-99.18333299999999,"(10, 20]",1584020738,17.0,1.41,40,55,-99.18,18.87
in,arsikere,13.313889000000001,76.256111,"(10, 20]",1584020740,28.92,2.67,66,36,76.26,13.31
in,goa velha,15.433333,73.866667,"(10, 20]",1584020741,22.8,2.04,0,77,73.87,15.43
ph,bunga,11.4838,124.5918,"(10, 20]",1584020742,23.12,3.45,19,89,124.59,11.48
jm,kingston,18.0,-76.8,"(10, 20]",1584020744,26.0,3.1,20,61,-76.8,18.0
vn,rach gia,10.016667,105.08333300000001,"(10, 20]",1584020745,28.0,3.6,0,78,105.08,10.02
hn,san luis de planes,14.983333300000002,-88.1333333,"(10, 20]",1584020746,26.11,3.1,40,88,-88.13,14.98
ph,gibgos,13.859000000000002,123.7675,"(10, 20]",1584020748,26.59,5.62,3,78,123.77,13.86
ph,san vicente,13.8203,122.22200000000001,"(10, 20]",1584020749,26.41,4.59,58,81,122.22,13.82
gt,san andres itzapa,14.62,-90.844167,"(10, 20]",1584020750,15.0,5.1,0,82,-90.84,14.62
mx,tlalancaleca,19.316667000000002,-98.5,"(10, 20]",1584020752,15.56,1.0,5,44,-98.5,19.32
ph,san francisco,13.7911,122.2876,"(10, 20]",1584020753,22.4,1.09,54,94,122.29,13.79
mx,san gabriel casa blanca,18.15,-97.133333,"(10, 20]",1584020754,18.83,0.46,26,64,-97.13,18.15
in,tekkalakota,15.533332999999999,76.883333,"(10, 20]",1584020755,28.26,1.39,27,32,76.88,15.53
gm,kerewan,13.489444400000002,-16.0911111,"(10, 20]",1584020757,41.3,4.91,0,4,-16.09,13.49
ph,nilombot,16.0052,120.4202,"(10, 20]",1584020758,23.72,1.94,0,76,120.42,16.01
hn,tegucigalpa,14.1,-87.2166667,"(10, 20]",1584020601,21.0,2.6,20,82,-87.22,14.1
mx,amozoc,19.033333,-98.05,"(10, 20]",1584020761,18.54,1.93,5,42,-98.05,19.03
mx,hueypoxtla,19.908333,-99.08,"(10, 20]",1584020762,15.56,1.0,5,44,-99.08,19.91
ph,malabag,14.139381,120.967509,"(10, 20]",1584020763,29.0,2.6,20,66,120.97,14.14
hn,juticalpa,14.65,-86.2,"(10, 20]",1584020583,24.9,0.5,85,62,-86.2,14.65
ph,calapi,10.2736,122.9743,"(10, 20]",1584020766,23.36,2.31,0,74,122.97,10.27
in,gudiyattam,12.95,78.866667,"(10, 20]",1584020767,25.38,4.37,40,57,78.87,12.95
ni,dolores,11.85,-86.2166667,"(10, 20]",1584020769,26.0,5.1,20,73,-86.22,11.85
ph,bidduang,18.466389000000003,121.34111100000001,"(10, 20]",1584020770,24.62,4.55,0,79,121.34,18.47
sn,mbour,14.4,-16.966666699999998,"(10, 20]",1584020771,38.0,7.2,0,7,-16.97,14.4
in,guhagar,17.466667,73.2,"(10, 20]",1584020773,25.6,7.79,0,70,73.2,17.47
ph,bancal,11.5591,123.1551,"(10, 20]",1584020774,25.51,1.15,28,81,123.16,11.56
ph,san vicente,13.4081,123.4188,"(10, 20]",1584020775,22.86,2.55,69,95,123.42,13.41
hn,la union,14.816666699999999,-88.4,"(10, 20]",1584020776,22.52,0.79,1,68,-88.4,14.82
mm,pyapon,16.283333300000002,95.6833333,"(10, 20]",1584020778,22.75,3.46,0,74,95.68,16.28
ph,coron,11.9986,120.2043,"(10, 20]",1584020779,26.43,3.31,34,79,120.2,12.0
ph,cordoba,10.251944,123.949444,"(10, 20]",1584020781,28.0,4.1,20,65,123.95,10.25
in,kottaiyur,10.116667,78.81666700000001,"(10, 20]",1584020782,27.28,5.61,1,67,78.82,10.12
mx,tenextatiloyan,19.716667,-97.583333,"(10, 20]",1584020783,16.38,1.45,15,44,-97.58,19.72
cr,san rafael,10.013202,-84.100157,"(10, 20]",1584020700,22.0,6.7,20,68,-84.1,10.01
ph,mabilao,16.1543,120.4248,"(10, 20]",1584020786,23.72,1.94,0,76,120.42,16.15
ph,tabug,18.0343,120.5488,"(10, 20]",1584020787,25.53,1.54,0,81,120.55,18.03
in,chintamani,13.4,78.06666700000001,"(10, 20]",1584020788,31.11,3.6,40,27,78.07,13.4
mx,xochitlan,18.7,-97.783333,"(10, 20]",1584020790,21.19,1.32,0,35,-97.78,18.7
pe,pativilca,-10.7,-77.7833333,"(-20, -10]",1584020791,23.01,3.31,73,81,-77.78,-10.7
br,betim,-19.966667,-44.216667,"(-20, -10]",1584020792,24.0,4.1,75,69,-44.22,-19.97
ao,lobito,-12.319722,13.599722,"(-20, -10]",1584020794,28.34,3.97,38,72,13.6,-12.32
zm,petauke,-14.25,31.3333333,"(-20, -10]",1584020795,25.02,2.13,35,78,31.33,-14.25
pe,imperial,-13.066666699999999,-76.35,"(-20, -10]",1584020796,23.67,2.88,70,76,-76.35,-13.07
bo,mizque,-17.9333333,-65.3166667,"(-20, -10]",1584020798,19.13,2.48,0,55,-65.32,-17.93
br,itubera,-13.733332999999998,-39.15,"(-20, -10]",1584020799,26.48,1.79,100,94,-39.15,-13.73
br,centralina,-18.566667000000002,-49.216667,"(-20, -10]",1584020800,25.79,4.68,0,78,-49.22,-18.57
mg,tsaratanana,-16.783333300000002,47.65,"(-20, -10]",1584020802,24.37,3.58,58,72,47.65,-16.78
br,ubaitaba,-14.3,-39.333333,"(-20, -10]",1584020803,23.48,3.59,100,97,-39.33,-14.3
br,nanuque,-17.833333,-40.35,"(-20, -10]",1584020804,26.62,5.06,94,81,-40.35,-17.83
pe,talavera,-13.653055599999998,-73.4288889,"(-20, -10]",1584020806,3.0,2.1,90,100,-73.43,-13.65
id,kupang,-10.166667,123.58333300000001,"(-20, -10]",1584020807,25.0,0.5,20,100,123.58,-10.17
pe,quilmana,-12.95,-76.3833333,"(-20, -10]",1584020808,23.67,2.88,70,76,-76.38,-12.95
mg,maroantsetra,-15.433333300000001,49.7333333,"(-20, -10]",1584020809,22.55,0.21,100,97,49.73,-15.43
zm,chililabombwe,-12.366666699999998,27.8333333,"(-20, -10]",1584020811,22.66,2.2,87,90,27.83,-12.37
br,quirinopolis,-18.533333,-50.5,"(-20, -10]",1584020812,28.34,3.57,0,68,-50.5,-18.53
pe,paucartambo,-13.315555599999998,-71.5916667,"(-20, -10]",1584020813,12.0,1.67,75,66,-71.59,-13.32
bo,potosi,-19.5836111,-65.7530556,"(-20, -10]",1584020815,9.0,3.56,20,81,-65.75,-19.58
br,jeremoabo,-10.066667,-38.35,"(-20, -10]",1584020816,32.09,3.87,34,41,-38.35,-10.07
br,uberlandia,-18.916667,-48.3,"(-20, -10]",1584020817,25.0,6.7,40,65,-48.3,-18.92
br,santa maria da vitoria,-13.4,-44.2,"(-20, -10]",1584020819,24.22,1.07,100,91,-44.2,-13.4
ws,sasina,-13.45,-172.43333330000002,"(-20, -10]",1584020820,26.67,5.92,51,94,-172.43,-13.45
na,oshikango,-17.4,15.883333300000002,"(-20, -10]",1584020821,36.0,2.1,40,38,15.88,-17.4
zw,marondera,-18.1833333,31.55,"(-20, -10]",1584020822,28.0,5.1,20,45,31.55,-18.18
mg,antananarivo,-18.9166667,47.5166667,"(-20, -10]",1584020824,26.0,5.7,40,47,47.52,-18.92
pe,juliaca,-15.5,-70.1333333,"(-20, -10]",1584020677,9.0,1.0,75,76,-70.13,-15.5
br,inhapim,-19.55,-42.116667,"(-20, -10]",1584020826,26.0,3.1,75,74,-42.12,-19.55
bo,montero,-17.3333333,-63.25,"(-20, -10]",1584020828,29.0,4.1,75,70,-63.25,-17.33
br,bocaiuva,-17.116667,-43.816666999999995,"(-20, -10]",1584020829,25.0,3.1,75,73,-43.82,-17.12
pf,papetoai,-17.4833333,-149.8666667,"(-20, -10]",1584020830,26.0,1.5,99,83,-149.87,-17.48
mg,fenoarivo atsinanana,-17.3666667,49.4166667,"(-20, -10]",1584020832,27.07,7.48,90,79,49.42,-17.37
tz,liuli,-11.083333300000001,34.6333333,"(-20, -10]",1584020833,27.4,5.25,100,75,34.63,-11.08
br,contagem,-19.916667,-44.1,"(-20, -10]",1584020834,26.0,4.6,40,65,-44.1,-19.92
bo,san miguel,-16.7,-61.0166667,"(-20, -10]",1584020835,27.0,1.22,75,83,-61.02,-16.7
pe,urubamba,-13.307777800000002,-72.11527779999999,"(-20, -10]",1584020837,12.0,0.5,75,66,-72.12,-13.31
br,prado,-17.35,-39.216667,"(-20, -10]",1584020838,26.28,1.45,100,74,-39.22,-17.35
br,medeiros neto,-17.333333,-40.233333,"(-20, -10]",1584020839,27.38,4.31,100,77,-40.23,-17.33
br,itarantim,-15.65,-40.05,"(-20, -10]",1584020841,25.39,3.17,97,87,-40.05,-15.65
pe,la oroya,-11.5333333,-75.9,"(-20, -10]",1584020842,6.58,1.71,77,57,-75.9,-11.53
zm,solwezi,-12.183333300000001,26.4,"(-20, -10]",1584020843,19.89,0.57,100,87,26.4,-12.18
ao,ondjiva,-17.066667000000002,15.733332999999998,"(-20, -10]",1584020844,33.0,2.1,40,38,15.73,-17.07
pe,ayacucho,-13.1583333,-74.2238889,"(-20, -10]",1584020846,15.0,2.1,90,62,-74.22,-13.16
br,grao mogol,-16.566667000000002,-42.9,"(-20, -10]",1584020847,20.7,2.11,100,93,-42.9,-16.57
br,arraias,-12.977222,-46.891667,"(-20, -10]",1584020848,27.52,0.67,100,75,-46.89,-12.98
mw,dowa,-13.65,33.9333333,"(-20, -10]",1584020850,22.5,2.86,100,89,33.93,-13.65
br,caratinga,-19.783333,-42.133333,"(-20, -10]",1584020851,26.0,3.1,75,74,-42.13,-19.78
zm,lusaka,-15.416666699999999,28.2833333,"(-20, -10]",1584020852,27.0,5.1,75,51,28.28,-15.42
br,ribeirao das neves,-19.783333,-44.1,"(-20, -10]",1584020854,26.0,4.1,40,61,-44.1,-19.78
pe,huarmey,-10.066666699999999,-78.16666670000001,"(-20, -10]",1584020855,27.06,3.14,42,50,-78.17,-10.07
id,rengasdengklok,-6.159167,107.298056,"(-10, 0]",1584020856,27.0,4.6,75,94,107.3,-6.16
tz,mkokotoni,-5.866666700000001,39.25,"(-10, 0]",1584020858,31.0,3.1,75,79,39.25,-5.87
ec,coronel mariduena,-2.2,-79.41666670000001,"(-10, 0]",1584020859,23.33,2.6,90,100,-79.42,-2.2
id,denpasar,-8.65,115.21666699999999,"(-10, 0]",1584020860,28.0,1.0,40,88,115.22,-8.65
tz,ilula,-7.6833333,36.033333299999995,"(-10, 0]",1584020861,18.89,1.63,99,94,36.03,-7.68
id,simpang,-1.266667,104.083333,"(-10, 0]",1584020863,24.6,1.15,43,92,104.08,-1.27
br,areia branca,-4.953889,-37.132222,"(-10, 0]",1584020864,29.91,4.31,35,64,-37.13,-4.95
br,tucurui,-3.7,-49.7,"(-10, 0]",1584020865,24.42,0.27,100,96,-49.7,-3.7
id,bandung,-6.9038889999999995,107.61861100000002,"(-10, 0]",1584020867,21.1,1.02,98,86,107.62,-6.9
sb,buala,-8.1333333,159.58333330000002,"(-10, 0]",1584020868,24.8,9.2,100,89,159.58,-8.13
id,banjar,-7.1955,107.4313,"(-10, 0]",1584020869,21.1,1.02,98,86,107.43,-7.2
ec,portoviejo,-1.05,-80.45,"(-10, 0]",1584020871,25.0,1.5,40,88,-80.45,-1.05
ke,kwale,-4.1833333,39.45,"(-10, 0]",1584020872,28.06,4.63,62,76,39.45,-4.18
id,besuki,-7.75,113.683333,"(-10, 0]",1584020873,20.63,1.25,100,91,113.68,-7.75
ke,wundanyi,-3.4,38.3666667,"(-10, 0]",1584020875,26.19,4.06,80,70,38.37,-3.4
ga,mimongo,-1.6333333,11.65,"(-10, 0]",1584020876,26.98,1.41,100,85,11.65,-1.63
cg,ewo,-0.8725,14.820555599999999,"(-10, 0]",1584020877,23.21,3.33,100,91,14.82,-0.87
br,toritama,-8.016667,-36.066666999999995,"(-10, 0]",1584020878,30.99,3.39,56,48,-36.07,-8.02
br,sao domingos do maranhao,-5.7,-44.366667,"(-10, 0]",1584020880,31.32,0.82,50,71,-44.37,-5.7
tz,mahonda,-6.45,39.466666700000005,"(-10, 0]",1584020881,32.0,3.1,75,79,39.47,-6.45
cg,loubomo,-4.1997222,12.673888900000001,"(-10, 0]",1584020882,28.71,2.03,100,70,12.67,-4.2
br,cajazeiras,-6.9,-38.566666999999995,"(-10, 0]",1584020884,29.32,1.57,44,69,-38.57,-6.9
br,quixada,-4.966667,-39.016667,"(-10, 0]",1584020885,30.66,2.27,13,62,-39.02,-4.97
br,pacajus,-4.1666669999999995,-38.466667,"(-10, 0]",1584020886,28.0,3.1,75,83,-38.47,-4.17
br,timon,-5.1,-42.816666999999995,"(-10, 0]",1584020888,27.0,2.1,40,83,-42.82,-5.1
br,igarape-miri,-1.9833330000000002,-48.966667,"(-10, 0]",1584020889,25.64,1.15,100,91,-48.97,-1.98
br,cachoeirinha,-8.483333,-36.233333,"(-10, 0]",1584020890,29.55,4.13,40,54,-36.23,-8.48
br,coelho neto,-4.25,-43.0,"(-10, 0]",1584020891,33.75,0.86,100,53,-43.0,-4.25
pe,san ignacio,-5.1458333,-79.00138890000001,"(-10, 0]",1584020893,18.1,0.78,99,95,-79.0,-5.15
br,nova cruz,-6.466667,-35.433333000000005,"(-10, 0]",1584020894,24.0,3.1,75,100,-35.43,-6.47
br,arari,-3.4666669999999997,-44.783333,"(-10, 0]",1584020895,29.47,1.16,65,79,-44.78,-3.47
id,waingapu,-9.6567,120.2641,"(-10, 0]",1584020897,29.46,0.76,100,69,120.26,-9.66
tz,kamachumu,-1.6186111,31.62,"(-10, 0]",1584020862,26.0,1.93,75,69,31.62,-1.62
cd,kamina,-8.738611,24.990555999999998,"(-10, 0]",1584020899,20.72,1.43,100,94,24.99,-8.74
tz,bunda,-2.05,33.8666667,"(-10, 0]",1584020900,27.0,3.1,20,69,33.87,-2.05
id,gamping,-7.783333,110.316667,"(-10, 0]",1584020902,24.53,3.07,100,93,110.32,-7.78
ug,ntungamo,-0.8833333000000001,29.65,"(-10, 0]",1584020903,26.35,1.04,100,64,29.65,-0.88
ec,montalvo,-1.8,-79.33333329999999,"(-10, 0]",1584020904,25.86,1.04,94,88,-79.33,-1.8
id,temanggung,-7.175555999999999,110.25833300000001,"(-10, 0]",1584020906,29.0,1.0,20,74,110.26,-7.18
tz,vwawa,-9.116666699999998,32.9333333,"(-10, 0]",1584020907,20.48,0.64,100,94,32.93,-9.12
br,cajueiro,-9.716667,-36.45,"(-10, 0]",1584020784,31.34,3.93,61,47,-36.45,-9.72
pg,rabaul,-4.2,152.18333330000002,"(-10, 0]",1584020910,29.01,6.11,100,74,152.18,-4.2
id,kualakapuas,-3.1,114.35,"(-10, 0]",1584020911,25.64,1.27,100,92,114.35,-3.1
br,japura,-1.395833,-69.42222199999999,"(-10, 0]",1584020912,29.82,1.56,82,71,-69.42,-1.4
br,vigia,-0.8,-48.133333,"(-10, 0]",1584020913,28.53,1.0,69,85,-48.13,-0.8
tz,itumba,-9.4,33.1833333,"(-10, 0]",1584020915,22.37,1.99,89,89,33.18,-9.4
br,chapadinha,-3.733333,-43.35,"(-10, 0]",1584020916,29.73,0.7,83,78,-43.35,-3.73
br,varjota,-4.133333,-40.5,"(-10, 0]",1584020917,30.94,1.32,15,67,-40.5,-4.13
br,pombos,-8.15,-35.4,"(-10, 0]",1584020919,32.0,4.1,75,62,-35.4,-8.15
ec,bahia de caraquez,-0.6,-80.41666670000001,"(-10, 0]",1584020920,25.0,1.5,40,88,-80.42,-0.6
br,butia,-30.116667,-51.966667,"(-90, -30]",1584020921,34.9,2.04,44,33,-51.97,-30.12
cl,teno,-34.866667,-71.18333299999999,"(-90, -30]",1584020923,20.0,1.0,3,60,-71.18,-34.87
uy,paso de los toros,-32.8166667,-56.5166667,"(-90, -30]",1584020924,24.0,4.1,40,83,-56.52,-32.82
au,morwell,-38.234759999999994,146.39498899999998,"(-90, -30]",1584020925,17.22,2.25,0,87,146.39,-38.23
za,saldanha,-33.01167,17.944202,"(-90, -30]",1584020927,21.19,4.37,0,62,17.94,-33.01
uy,la paz,-34.7616667,-56.22361110000001,"(-90, -30]",1584020928,25.0,3.6,75,83,-56.22,-34.76
za,kokstad,-30.547231,29.424120000000002,"(-90, -30]",1584020929,17.78,2.3,74,88,29.42,-30.55
za,lady frere,-31.703118,27.232903999999998,"(-90, -30]",1584020930,21.97,2.38,72,49,27.23,-31.7
nz,paihia,-35.283333,174.083333,"(-90, -30]",1584020932,17.78,2.68,11,81,174.08,-35.28
au,warrnambool,-38.38176,142.487991,"(-90, -30]",1584020933,21.67,5.97,100,56,142.49,-38.38
au,wagga wagga,-35.125771,147.353745,"(-90, -30]",1584020934,20.0,4.1,0,56,147.35,-35.13
ar,junin,-34.583816,-60.943318000000005,"(-90, -30]",1584020936,30.0,2.87,0,49,-60.94,-34.58
ar,san francisco,-31.427971000000003,-62.08265600000001,"(-90, -30]",1584020937,25.0,0.89,97,75,-62.08,-31.43
nz,riverton,-46.35,168.01666699999998,"(-90, -30]",1584020938,9.44,1.34,92,89,168.02,-46.35
nz,sefton,-43.25,172.666667,"(-90, -30]",1584020940,11.11,0.5,0,93,172.67,-43.25
nz,matata,-37.883333,176.75,"(-90, -30]",1584020941,13.89,2.78,6,88,176.75,-37.88
za,whittlesea,-32.175877,26.824371999999997,"(-90, -30]",1584020942,21.35,7.67,69,72,26.82,-32.18
nz,waitakere,-36.85,174.55,"(-90, -30]",1584020944,16.0,3.1,8,87,174.55,-36.85
cl,limache,-32.983333,-71.283333,"(-90, -30]",1584020945,19.0,4.18,90,93,-71.28,-32.98
nz,dunedin,-45.866667,170.5,"(-90, -30]",1584020805,12.78,2.32,3,78,170.5,-45.87
ar,san rafael,-34.617717,-68.330066,"(-90, -30]",1584020948,19.0,3.81,20,77,-68.33,-34.62
za,middelburg,-31.492849,25.00633,"(-90, -30]",1584020949,25.89,3.0,100,31,25.01,-31.49
nz,kawhia,-38.066666999999995,174.816667,"(-90, -30]",1584020950,12.22,1.49,0,77,174.82,-38.07
nz,ahipara,-35.166667,173.166667,"(-90, -30]",1584020951,18.01,6.37,0,82,173.17,-35.17
za,scottsburgh,-30.286656,30.753161,"(-90, -30]",1584020953,26.67,7.05,33,80,30.75,-30.29
au,parkes,-33.137199,148.175903,"(-90, -30]",1584020954,21.11,2.24,89,53,148.18,-33.14
za,dordrecht,-31.371996999999997,27.048778999999996,"(-90, -30]",1584020955,21.97,2.38,72,49,27.05,-31.37
nz,wellsford,-36.283333,174.51666699999998,"(-90, -30]",1584020957,14.44,1.85,1,91,174.52,-36.28
nz,foxton,-40.466667,175.3,"(-90, -30]",1584020958,11.11,1.6,1,91,175.3,-40.47
au,narrabri,-30.32612,149.783707,"(-90, -30]",1584020959,19.44,3.6,0,63,149.78,-30.33
cl,constitucion,-35.333333,-72.416667,"(-90, -30]",1584020961,19.83,2.77,30,57,-72.42,-35.33
cl,curico,-34.983333,-71.233333,"(-90, -30]",1584020962,20.0,1.0,3,60,-71.23,-34.98
uy,minas,-34.37,-55.225,"(-90, -30]",1584020963,24.0,6.2,75,78,-55.23,-34.37
uy,montevideo,-34.85805560000001,-56.1708333,"(-90, -30]",1584020635,25.0,3.6,75,83,-56.17,-34.86
cl,penco,-36.733333,-72.983333,"(-90, -30]",1584020966,17.0,3.1,75,82,-72.98,-36.73
ar,san juan,-31.5375,-68.536389,"(-90, -30]",1584020967,28.89,1.72,0,50,-68.54,-31.54
nz,balclutha,-46.233889000000005,169.75,"(-90, -30]",1584020968,5.77,1.06,0,98,169.75,-46.23
nz,timaru,-44.4,171.25,"(-90, -30]",1584020970,12.4,3.13,6,80,171.25,-44.4
nz,hanmer springs,-42.516667,172.816667,"(-90, -30]",1584020971,6.92,1.01,4,75,172.82,-42.52
ar,olavarria,-36.892715,-60.322540000000004,"(-90, -30]",1584020972,26.86,2.47,0,51,-60.32,-36.89
nz,kawerau,-38.1,176.7,"(-90, -30]",1584020864,13.89,1.8,0,88,176.7,-38.1
nz,whangarei,-35.72,174.33,"(-90, -30]",1584020975,17.78,2.68,6,81,174.33,-35.72
nz,waiuku,-37.25,174.75,"(-90, -30]",1584020976,16.0,3.1,0,87,174.75,-37.25
za,umkomaas,-30.206742,30.797759000000003,"(-90, -30]",1584020977,26.67,3.34,28,80,30.8,-30.21
cl,lautaro,-38.516667,-72.45,"(-90, -30]",1584020979,17.78,1.0,52,82,-72.45,-38.52
nz,wairoa,-39.033333,177.366667,"(-90, -30]",1584020980,15.0,3.58,100,91,177.37,-39.03
au,clifton springs,-38.1567,144.555099,"(-90, -30]",1584020981,23.33,5.7,58,52,144.56,-38.16
nz,rolleston,-43.583333,172.383333,"(-90, -30]",1584020983,11.11,0.5,0,93,172.38,-43.58
nz,waharoa,-37.766667,175.76666699999998,"(-90, -30]",1584020984,13.89,1.92,0,80,175.77,-37.77
nz,tairua,-37.016667,175.85,"(-90, -30]",1584020985,16.11,1.34,51,66,175.85,-37.02
za,bloemfontein,-29.121065,26.214002999999998,"(-30, -20]",1584020987,23.0,7.2,20,60,26.21,-29.12
mz,chibuto,-24.6866667,33.53055560000001,"(-30, -20]",1584020988,30.0,4.94,85,55,33.53,-24.69
br,videira,-27.0,-51.133333,"(-30, -20]",1584020989,29.69,0.82,100,33,-51.13,-27.0
bw,bonwapitse,-23.0166667,26.6666667,"(-30, -20]",1584020991,31.22,5.39,0,23,26.67,-23.02
br,colombo,-25.283333,-49.233333,"(-30, -20]",1584020992,26.11,1.5,20,73,-49.23,-25.28
bw,tonota,-21.4833333,27.483333299999998,"(-30, -20]",1584020993,33.0,3.6,40,31,27.48,-21.48
za,phalaborwa,-23.942987,31.141073,"(-30, -20]",1584020746,28.7,2.86,53,53,31.14,-23.94
na,gobabis,-22.45,18.966666699999998,"(-30, -20]",1584020996,33.0,30.9,80,26,18.97,-22.45
mg,ikalamavony,-21.15,46.5833333,"(-30, -20]",1584020997,23.89,3.28,2,70,46.58,-21.15
br,itapora,-22.016667,-54.9,"(-30, -20]",1584020999,30.91,4.66,0,53,-54.9,-22.02
sz,malkerns,-26.566666700000003,31.183333299999997,"(-30, -20]",1584021000,20.0,1.0,100,82,31.18,-26.57
br,rancharia,-22.25,-50.916667,"(-30, -20]",1584021001,29.0,4.6,0,51,-50.92,-22.25
br,sao joaquim de bicas,-20.05,-44.283333,"(-30, -20]",1584021002,26.0,4.6,40,65,-44.28,-20.05
br,sorocaba,-23.483333,-47.45,"(-30, -20]",1584021004,26.0,2.1,1,57,-47.45,-23.48
za,jan kempdorp,-27.922456,24.830515,"(-30, -20]",1584021005,27.62,3.47,75,32,24.83,-27.92
br,pradopolis,-21.366667,-48.066666999999995,"(-30, -20]",1584021006,27.0,4.6,0,57,-48.07,-21.37
mg,amboasary,-25.033333300000002,46.3833333,"(-30, -20]",1584021008,27.0,7.2,40,83,46.38,-25.03
mg,vangaindrano,-23.35,47.6,"(-30, -20]",1584021009,24.11,1.94,11,91,47.6,-23.35
br,estrela,-28.1,-50.983333,"(-30, -20]",1584021010,28.0,1.91,86,40,-50.98,-28.1
br,faxinal,-23.983333,-51.366667,"(-30, -20]",1584021012,31.54,0.55,40,49,-51.37,-23.98
nc,poindimie,-20.9333333,165.33333330000002,"(-30, -20]",1584021013,27.2,1.77,98,75,165.33,-20.93
br,santa adelia,-21.266667,-48.8,"(-30, -20]",1584021014,28.7,2.89,0,56,-48.8,-21.27
mu,the vale,-20.0283333,57.58777779999999,"(-30, -20]",1584021015,25.56,2.6,75,100,57.59,-20.03
bw,makaleng,-20.9,27.2833333,"(-30, -20]",1584021017,33.0,3.6,40,31,27.28,-20.9
br,orlandia,-20.716667,-47.883333,"(-30, -20]",1584021018,27.0,4.6,0,57,-47.88,-20.72
br,apiai,-24.511926000000003,-48.844671000000005,"(-30, -20]",1584021019,27.07,1.65,36,47,-48.84,-24.51
br,bueno brandao,-22.45,-46.35,"(-30, -20]",1584021021,25.12,1.86,5,65,-46.35,-22.45
au,caloundra,-26.797090999999998,153.13771100000002,"(-30, -20]",1584021022,20.56,3.1,20,88,153.14,-26.8
za,witbank,-25.871331,29.233234000000003,"(-30, -20]",1584021023,19.16,4.79,85,79,29.23,-25.87
py,general higinio morinigo,-25.95,-55.916667000000004,"(-30, -20]",1584021025,34.28,3.28,41,35,-55.92,-25.95
br,itanhaem,-24.183332999999998,-46.783333,"(-30, -20]",1584021026,27.22,1.0,75,74,-46.78,-24.18
br,altonia,-23.933332999999998,-53.9,"(-30, -20]",1584021027,30.59,5.19,5,54,-53.9,-23.93
br,barra bonita,-22.483333,-48.533333,"(-30, -20]",1584021028,27.22,4.1,0,74,-48.53,-22.48
br,vassouras,-22.406111,-43.664167,"(-30, -20]",1584021030,28.0,3.6,66,61,-43.66,-22.41
nc,ponerihouen,-21.0833333,165.4,"(-30, -20]",1584021031,27.2,1.77,98,75,165.4,-21.08
br,mairipora,-23.322627999999998,-46.586935,"(-30, -20]",1584021032,26.67,3.1,75,83,-46.59,-23.32
au,geraldton,-28.778971000000002,114.614594,"(-30, -20]",1584021034,23.0,7.2,75,78,114.61,-28.78
mg,ifanadiana,-21.3,47.6333333,"(-30, -20]",1584021035,20.25,1.45,27,98,47.63,-21.3
nc,moindou,-21.7,165.68333330000002,"(-30, -20]",1584021036,24.0,1.5,82,88,165.68,-21.7
py,fram,-26.983333000000002,-55.88333299999999,"(-30, -20]",1584021037,31.0,6.2,64,40,-55.88,-26.98
py,belen,-23.466110999999998,-57.26194399999999,"(-30, -20]",1584021039,38.09,2.8,65,25,-57.26,-23.47
py,yuty,-26.6,-56.25,"(-30, -20]",1584021040,35.25,2.79,66,34,-56.25,-26.6
py,san miguel,-26.5,-57.05,"(-30, -20]",1584021041,36.63,3.47,100,30,-57.05,-26.5
br,nilopolis,-22.808487,-43.419792,"(-30, -20]",1584021043,29.0,2.1,20,58,-43.42,-22.81
br,piraquara,-25.433332999999998,-49.066666999999995,"(-30, -20]",1584021044,26.11,1.5,20,73,-49.07,-25.43
py,tavai,-26.483333000000002,-56.35,"(-30, -20]",1584021045,36.52,3.39,87,29,-56.35,-26.48
py,pirayu,-25.483333,-57.233332999999995,"(-30, -20]",1584021047,34.0,3.6,100,38,-57.23,-25.48
ar,la rioja,-29.411047999999997,-66.850668,"(-30, -20]",1584021048,25.81,3.26,33,51,-66.85,-29.41
br,tangua,-22.733333,-42.716667,"(-30, -20]",1584021049,28.0,2.1,20,69,-42.72,-22.73
br,loanda,-22.9,-53.166667000000004,"(-30, -20]",1584021051,29.03,4.44,0,65,-53.17,-22.9
ru,tunoshna,57.545891000000005,40.125431,"(50, 60]",1584021052,6.0,6.0,75,75,40.13,57.55
ru,khani,57.033333,120.96666699999999,"(50, 60]",1584021053,-26.3,0.62,96,90,120.97,57.03
dk,stenlille,55.540225,11.591458,"(50, 60]",1584021054,7.22,16.5,0,56,11.59,55.54
ru,karabanovo,56.316667,38.7,"(50, 60]",1584021056,4.52,2.98,100,71,38.7,56.32
ee,maardu,59.4280556,25.025,"(50, 60]",1584021057,7.78,5.7,75,70,25.03,59.43
ru,mednogorsk,51.4128,57.595,"(50, 60]",1584021058,-1.04,3.66,73,85,57.6,51.41
dk,ribe,55.329462,8.781352,"(50, 60]",1584021060,7.0,13.4,71,65,8.78,55.33
ru,chernitsyno,51.50739,36.051012,"(50, 60]",1584021061,10.0,6.0,20,55,36.05,51.51
de,dannenberg,53.1,11.1,"(50, 60]",1584021062,11.11,9.8,40,42,11.1,53.1
ru,melekhovo,56.277297,41.293457000000004,"(50, 60]",1584021064,4.97,5.73,100,75,41.29,56.28
dk,braedstrup,55.97079300000001,9.608549,"(50, 60]",1584021065,7.0,14.9,75,61,9.61,55.97
nl,veere,51.548193,3.668182,"(50, 60]",1584021066,11.11,11.8,99,70,3.67,51.55
ru,togul,53.465,85.9128,"(50, 60]",1584021068,-8.34,2.62,0,91,85.91,53.47
gb,winchester,51.016667,-1.316667,"(50, 60]",1584021069,11.11,6.7,75,63,-1.32,51.02
gb,rugby,52.366667,-1.25,"(50, 60]",1584021070,10.56,8.2,40,45,-1.25,52.37
ru,mayma,52.019721999999994,85.911389,"(50, 60]",1584021072,-4.98,1.22,0,88,85.91,52.02
ru,kratovo,55.597283999999995,38.177429,"(50, 60]",1584021073,10.0,5.0,87,60,38.18,55.6
ru,basyanovskiy,58.308889,60.739113,"(50, 60]",1584021074,4.17,5.26,95,88,60.74,58.31
gb,seafield,55.966667,-3.15,"(50, 60]",1584021076,6.11,9.8,75,81,-3.15,55.97
dk,ebeltoft,56.201801,10.682258000000001,"(50, 60]",1584021077,7.0,12.3,18,65,10.68,56.2
ru,nizhnyaya maktama,54.863564000000004,52.428096000000004,"(50, 60]",1584021078,3.68,5.58,100,98,52.43,54.86
ru,podkletnoye,51.589934,39.4623,"(50, 60]",1584021080,9.0,7.0,40,57,39.46,51.59
gb,helmsdale,58.11666700000001,-3.666667,"(50, 60]",1584021081,8.0,3.1,75,81,-3.67,58.12
pl,zabkowice slaskie,50.591954,16.818407,"(50, 60]",1584021082,17.78,8.2,70,51,16.82,50.59
ee,marjamaa,58.9038889,24.4305556,"(50, 60]",1584021084,7.0,5.7,75,70,24.43,58.9
pl,lublin,51.25,22.566667000000002,"(50, 60]",1584020889,16.0,13.4,20,48,22.57,51.25
be,hoeselt,50.85,5.483333,"(50, 60]",1584021086,13.33,7.2,67,59,5.48,50.85
ru,barnaul,53.360556,83.763611,"(50, 60]",1584021087,-3.0,4.0,0,58,83.76,53.36
ru,yanchukan,56.249722,112.81138899999999,"(50, 60]",1584021089,-18.05,1.61,100,98,112.81,56.25
gb,hatfield,53.566667,-0.983333,"(50, 60]",1584021090,10.56,11.3,40,45,-0.98,53.57
nl,amersfoort,52.156022,5.389526,"(50, 60]",1584020666,11.11,9.3,75,46,5.39,52.16
ru,zarechnyy,56.7878,61.3633,"(50, 60]",1584021093,7.0,7.0,39,45,61.36,56.79
gb,waterfoot,55.05,-6.066667,"(50, 60]",1584021094,8.0,13.4,75,87,-6.07,55.05
ru,gorodishche,51.1249,38.0788,"(50, 60]",1584021095,8.03,4.86,8,62,38.08,51.12
ca,vulcan,50.4,-113.25,"(50, 60]",1584021097,-5.56,1.79,100,94,-113.25,50.4
ru,kotovsk,52.586659999999995,41.502103999999996,"(50, 60]",1584021098,6.01,5.32,37,68,41.5,52.59
ru,melnikovo,56.55583299999999,84.085,"(50, 60]",1584021099,-2.22,5.34,100,85,84.09,56.56
gb,dalkeith,55.86666700000001,-3.066667,"(50, 60]",1584021101,6.11,9.8,75,81,-3.07,55.87
de,haldensleben,52.3,11.416667,"(50, 60]",1584021102,12.22,9.3,0,45,11.42,52.3
ru,gdov,58.74424200000001,27.819767,"(50, 60]",1584021103,5.03,4.98,92,84,27.82,58.74
ru,bogatyye saby,56.0102,50.4483,"(50, 60]",1584021105,3.66,6.2,96,93,50.45,56.01
ru,kolyvan,55.3053,82.7391,"(50, 60]",1584021106,-1.0,6.0,40,68,82.74,55.31
ee,kose,59.4580556,24.8783333,"(50, 60]",1584021107,7.78,5.7,75,70,24.88,59.46
ua,sloboda,51.198056,33.606953000000004,"(50, 60]",1584021109,10.06,5.59,23,55,33.61,51.2
gb,kilcreggan,55.983332999999995,-4.8333330000000005,"(50, 60]",1584021110,7.0,12.3,90,87,-4.83,55.98
pl,chojnow,51.273154999999996,15.935862,"(50, 60]",1584021111,17.0,8.2,98,51,15.94,51.27
de,blankenburg,51.783333,10.95,"(50, 60]",1584021113,12.22,9.3,0,45,10.95,51.78
ru,pytalovo,57.067905,27.913843,"(50, 60]",1584021114,6.27,5.74,100,85,27.91,57.07
pl,jaworzno,50.206025,19.270062,"(50, 60]",1584021115,18.33,13.4,20,48,19.27,50.21
ru,pushkino,51.235,46.974167,"(50, 60]",1584021116,8.15,5.27,75,81,46.97,51.24
ng,apomu,7.3333330000000005,4.183333,"(0, 10]",1584021118,31.46,2.45,99,58,4.18,7.33
et,moyale,3.5691669999999998,39.083333,"(0, 10]",1584021119,31.29,5.73,100,34,39.08,3.57
in,tondi,9.733333,79.016667,"(0, 10]",1584021120,28.07,8.14,67,71,79.02,9.73
cm,mbalmayo,3.5166667,11.5,"(0, 10]",1584021122,31.0,2.6,75,58,11.5,3.52
my,bukit bakri,2.0429,102.6576,"(0, 10]",1584021123,29.0,1.5,20,79,102.66,2.04
th,sai buri,6.701306,101.61675,"(0, 10]",1584021124,23.61,1.3,20,95,101.62,6.7
ph,libertad,8.2755,123.8382,"(0, 10]",1584021126,27.59,0.98,0,77,123.84,8.28
lr,yekepa,7.579444400000001,-8.5377778,"(0, 10]",1584021127,35.93,1.52,2,30,-8.54,7.58
gh,prestea,5.4333333,-2.15,"(0, 10]",1584021128,32.23,1.97,96,64,-2.15,5.43
in,usilampatti,9.966667,77.8,"(0, 10]",1584020951,33.0,5.1,40,46,77.8,9.97
ph,sagacad,7.686111,123.340556,"(0, 10]",1584021131,27.14,4.59,11,75,123.34,7.69
co,gomez plata,6.681779,-75.219065,"(0, 10]",1584021132,21.0,1.0,75,93,-75.22,6.68
ph,maasim,5.8575,125.006111,"(0, 10]",1584021133,22.66,2.46,48,69,125.01,5.86
pa,aguadulce,8.25,-80.55,"(0, 10]",1584021135,27.0,6.87,20,69,-80.55,8.25
ph,sitangkai,4.662778,119.392778,"(0, 10]",1584021136,27.94,1.89,80,77,119.39,4.66
ph,alanib,8.027778,124.98611100000001,"(0, 10]",1584021137,25.56,2.68,27,84,124.99,8.03
ci,vavoua,7.381944,-6.477778,"(0, 10]",1584021139,40.47,1.2,53,17,-6.48,7.38
ph,munai,7.975833000000001,124.06361100000001,"(0, 10]",1584021031,20.25,1.48,5,86,124.06,7.98
ph,mabini,6.538889,124.9,"(0, 10]",1584021141,20.49,1.96,49,80,124.9,6.54
co,valparaiso,1.1951200000000002,-75.707053,"(0, 10]",1584021143,27.43,1.32,80,86,-75.71,1.2
my,peringat,6.033333,102.283333,"(0, 10]",1584021144,27.0,2.1,20,83,102.28,6.03
co,hacari,8.323333,-73.148889,"(0, 10]",1584021145,26.94,0.74,79,56,-73.15,8.32
pa,gomez,8.566666699999999,-82.7333333,"(0, 10]",1584021147,25.0,1.0,20,83,-82.73,8.57
co,el carmen de bolivar,9.717396,-75.120232,"(0, 10]",1584021148,29.31,2.09,59,57,-75.12,9.72
co,iquira,2.648673,-75.634573,"(0, 10]",1584021149,22.0,2.1,90,100,-75.63,2.65
co,caicedonia,4.332396,-75.826654,"(0, 10]",1584021151,22.0,0.51,75,100,-75.83,4.33
ph,manuangan,7.276944,124.404444,"(0, 10]",1584021031,20.02,3.08,34,68,124.4,7.28
gh,swedru,5.5333333,-0.7,"(0, 10]",1584021153,33.0,6.7,40,63,-0.7,5.53
ph,salvacion,7.983333,126.13333300000001,"(0, 10]",1584021155,22.93,1.24,71,93,126.13,7.98
ve,maturin,9.75,-63.1766667,"(0, 10]",1584021156,31.17,3.67,6,45,-63.18,9.75
my,kuang,3.2594,101.5541,"(0, 10]",1584021157,27.78,1.0,20,94,101.55,3.26
my,yong peng,2.0136,103.0659,"(0, 10]",1584021158,24.05,1.69,0,92,103.07,2.01
co,guaduas,5.06692,-74.59498599999999,"(0, 10]",1584021160,15.0,3.1,75,77,-74.59,5.07
ph,lourdes,8.525,124.432222,"(0, 10]",1584021161,25.56,2.68,21,84,124.43,8.53
ph,liliongan,7.362778,124.792778,"(0, 10]",1584021162,22.09,2.02,85,80,124.79,7.36
ph,manticao,8.404167,124.286667,"(0, 10]",1584021164,25.56,2.68,21,84,124.29,8.4
ng,ipoti,7.8737699999999995,5.0769150000000005,"(0, 10]",1584021165,33.77,1.68,80,40,5.08,7.87
ng,afikpo,5.893121,7.937353,"(0, 10]",1584021166,34.35,2.22,100,47,7.94,5.89
ph,blingkong,6.572222,124.877222,"(0, 10]",1584021167,20.49,1.96,49,80,124.88,6.57
co,corrales,5.829683,-72.843321,"(0, 10]",1584021169,11.94,1.34,93,90,-72.84,5.83
ph,lintangan,7.215545,121.95200000000001,"(0, 10]",1584021170,23.87,1.31,16,77,121.95,7.22
co,el tambo,1.418142,-77.396784,"(0, 10]",1584021171,17.0,1.67,75,88,-77.4,1.42
co,aranzazu,5.271232,-75.490438,"(0, 10]",1584021173,22.0,0.51,75,100,-75.49,5.27
co,armenia,6.156389,-75.787222,"(0, 10]",1584021174,21.0,0.85,75,83,-75.79,6.16
co,coloso,9.491496000000001,-75.361451,"(0, 10]",1584021175,30.76,2.59,0,53,-75.36,9.49
co,candelaria,3.406711,-76.348192,"(0, 10]",1584021177,23.0,2.1,75,88,-76.35,3.41
ph,kitaotao,7.639722,125.008889,"(0, 10]",1584021178,22.09,2.02,85,80,125.01,7.64
et,guder,8.966667,37.766667,"(0, 10]",1584021179,21.24,2.45,57,42,37.77,8.97
ph,tawagan,7.8434,123.4729,"(0, 10]",1584021181,22.4,1.01,0,89,123.47,7.84
ph,dapa,9.759444,126.05305600000001,"(0, 10]",1584021182,26.85,5.05,9,77,126.05,9.76
no,larsnes,62.216667,5.6,"(60, 90]",1584021183,4.44,7.7,90,98,5.6,62.22
ru,zelenogorsk,60.199679,29.701834,"(60, 90]",1584021184,6.0,5.0,90,75,29.7,60.2
ru,uray,60.124722,64.77583299999999,"(60, 90]",1584021186,3.02,6.47,67,80,64.78,60.12
ru,verkhnetulomskiy,68.60727,31.79621,"(60, 90]",1584021187,0.0,1.54,75,94,31.8,68.61
ca,whitehorse,60.716667,-135.05,"(60, 90]",1584020937,-25.0,2.1,5,75,-135.05,60.72
no,odda,60.066667,6.55,"(60, 90]",1584021190,4.44,4.47,100,82,6.55,60.07
fi,forssa,60.816667,23.633333,"(60, 90]",1584021191,6.67,5.1,75,80,23.63,60.82
ru,primorsk,60.365806000000006,28.618205,"(60, 90]",1584021192,1.98,7.53,100,90,28.62,60.37
ru,usogorsk,63.410636,48.687225,"(60, 90]",1584021194,1.33,4.2,100,99,48.69,63.41
no,trondheim,63.416667000000004,10.416667,"(60, 90]",1584021195,3.0,2.1,75,98,10.42,63.42
no,mo i rana,66.31666700000001,14.166667000000002,"(60, 90]",1584021196,2.0,2.1,75,69,14.17,66.32
no,dale,61.783333,9.5,"(60, 90]",1584021197,-6.5,2.71,57,89,9.5,61.78
ru,vuktyl,63.856667,57.30944399999999,"(60, 90]",1584021199,1.24,4.81,100,97,57.31,63.86
fi,vaasa,63.1,21.6,"(60, 90]",1584021200,2.22,2.1,90,100,21.6,63.1
no,bronnoysund,65.466667,12.216667,"(60, 90]",1584021201,3.0,8.7,75,69,12.22,65.47
no,sorland,67.666667,12.7,"(60, 90]",1584021203,0.0,14.9,75,71,12.7,67.67
ru,zheleznodorozhnyy,62.589988,50.859388,"(60, 90]",1584021204,1.86,4.51,100,99,50.86,62.59
fi,laukaa,62.416667000000004,25.95,"(60, 90]",1584021205,2.22,2.6,75,93,25.95,62.42
se,umea,63.833332999999996,20.25,"(60, 90]",1584021207,0.56,0.5,90,97,20.25,63.83
ru,borovoy,63.230047,52.890313,"(60, 90]",1584021208,1.58,4.48,100,100,52.89,63.23
fi,kemi,65.733333,24.566667000000002,"(60, 90]",1584021209,0.0,2.6,90,98,24.57,65.73
no,raufoss,60.716667,10.616667,"(60, 90]",1584021211,6.11,2.6,72,38,10.62,60.72
fi,noormarkku,61.583332999999996,21.866667,"(60, 90]",1584021212,5.0,3.1,40,75,21.87,61.58
no,sandnessjoen,66.016667,12.633333,"(60, 90]",1584020963,3.0,6.2,75,64,12.63,66.02
ru,oksovskiy,62.60623399999999,39.898447,"(60, 90]",1584021215,1.38,4.37,100,97,39.9,62.61
ru,tarnogskiy gorodok,60.499722,43.576111,"(60, 90]",1584021216,1.58,4.39,95,95,43.58,60.5
ru,staryy nadym,65.666667,72.783333,"(60, 90]",1584021217,0.68,5.75,100,99,72.78,65.67
ru,barsovo,61.166667000000004,73.166667,"(60, 90]",1584021218,4.0,5.0,100,69,73.17,61.17
fo,vestmanna,62.15,-7.1666667,"(60, 90]",1584021220,3.0,9.8,100,74,-7.17,62.15
fi,lieto,60.5,22.45,"(60, 90]",1584021221,6.11,3.1,88,75,22.45,60.5
ru,lokosovo,61.13333299999999,74.81666700000001,"(60, 90]",1584021222,1.38,4.53,100,94,74.82,61.13
ru,murmansk,68.979174,33.092514,"(60, 90]",1584021224,0.0,1.45,75,95,33.09,68.98
se,borlange,60.483332999999995,15.416667000000002,"(60, 90]",1584021225,5.56,1.5,20,63,15.42,60.48
fo,saltangara,62.1166667,-6.7166667,"(60, 90]",1584021226,3.0,9.8,100,74,-6.72,62.12
no,stjordalshalsen,63.466667,10.933333,"(60, 90]",1584021228,3.0,2.1,75,94,10.93,63.47
se,ornskoldsvik,63.3,18.716667,"(60, 90]",1584021229,1.0,1.0,100,100,18.72,63.3
no,sparbu,63.916667000000004,11.433333,"(60, 90]",1584021230,3.0,2.1,75,98,11.43,63.92
gl,sisimiut,66.9333333,-53.6833333,"(60, 90]",1584021232,-17.48,1.62,0,78,-53.68,66.93
ru,provideniya,64.383333,-173.3,"(60, 90]",1584021233,-2.46,11.64,100,97,-173.3,64.38
fi,eura,61.13333299999999,22.133333,"(60, 90]",1584021234,6.11,3.1,40,75,22.13,61.13
us,sterling,60.53722220000001,-150.7647222,"(60, 90]",1584021236,-24.0,2.1,1,83,-150.76,60.54
ru,nadym,65.533333,72.516667,"(60, 90]",1584021237,0.73,5.37,100,99,72.52,65.53
se,sundsvall,62.38333299999999,17.3,"(60, 90]",1584021238,6.0,3.6,40,60,17.3,62.38
ru,ilinskiy,61.013459,32.666308,"(60, 90]",1584021239,0.56,8.07,100,97,32.67,61.01
no,kvam,61.666667000000004,9.7,"(60, 90]",1584021241,-2.59,3.88,0,78,9.7,61.67
is,vogar,63.966667,-22.366667,"(60, 90]",1584021242,-1.0,4.1,75,68,-22.37,63.97
no,jessheim,60.15,11.183333,"(60, 90]",1584021243,7.78,2.6,98,38,11.18,60.15
gb,scalloway,60.13333299999999,-1.3,"(60, 90]",1584021245,7.0,6.7,40,75,-1.3,60.13
no,sovik,60.216111,5.387222,"(60, 90]",1584021246,5.56,6.2,75,80,5.39,60.22
ru,revda,67.937101,34.561494,"(60, 90]",1584021247,-5.74,0.83,100,93,34.56,67.94
